{
  "75001": [
    [
      {
        "objectid": 2,
        "id_bv": "1-2",
        "num_bv": "0002",
        "lib": "ECOLE ELEMENTAIRE",
        "adresse": "19 RUE DE L ARBRE SEC",
        "cp": "75001",
        "lat": 48.85990426717268,
        "lon": 2.342029952212054
      },
      {
        "objectid": 3,
        "id_bv": "1-3",
        "num_bv": "0003",
        "lib": "ECOLE MATERNELLE",
        "adresse": "6 RUE SAINT GERMAIN L AUXERROIS",
        "cp": "75001",
        "lat": 48.85821794973456,
        "lon": 2.3453867116687905
      },
      {
        "objectid": 5,
        "id_bv": "1-5",
        "num_bv": "0005",
        "lib": "CONSERVATOIRE MUNICIPAL MOZART",
        "adresse": "7 PASSAGE DE LA CANOPEE",
        "cp": "75001",
        "lat": 48.86153308018853,
        "lon": 2.3475186939234223
      },
      {
        "objectid": 4,
        "id_bv": "1-4",
        "num_bv": "0004",
        "lib": "MEDIATHEQUE DE LA CANOPEE LA FONTAINE",
        "adresse": "10 PASSAGE DE LA CANOPEE",
        "cp": "75001",
        "lat": 48.86181948548021,
        "lon": 2.347643903283827
      },
      {
        "objectid": 1,
        "id_bv": "1-1",
        "num_bv": "0001",
        "lib": "QUARTIER JEUNES",
        "adresse": "4 PLACE DU LOUVRE",
        "cp": "75001",
        "lat": 48.86008352663214,
        "lon": 2.341064487067419
      }
    ],
    [
      {
        "objectid": 9,
        "id_bv": "1-9",
        "num_bv": "0009",
        "lib": "ECOLE MATERNELLE",
        "adresse": "27 RUE DE LA SOURDIERE",
        "cp": "75001",
        "lat": 48.866700683221424,
        "lon": 2.3327061451988893
      },
      {
        "objectid": 8,
        "id_bv": "1-8",
        "num_bv": "0008",
        "lib": "ECOLE ELEMENTAIRE",
        "adresse": "11 RUE D ARGENTEUIL",
        "cp": "75001",
        "lat": 48.86488576234674,
        "lon": 2.3338232532891654
      },
      {
        "objectid": 7,
        "id_bv": "1-7",
        "num_bv": "0007",
        "lib": "COLLEGE JEAN-BAPTISTE POQUELIN",
        "adresse": "6 RUE MOLIERE",
        "cp": "75001",
        "lat": 48.86465286750806,
        "lon": 2.335488359834315
      },
      {
        "objectid": 10,
        "id_bv": "1-10",
        "num_bv": "0010",
        "lib": "ECOLE ELEMENTAIRE",
        "adresse": "28 RUE CAMBON",
        "cp": "75001",
        "lat": 48.868112427924615,
        "lon": 2.326856188899248
      }
    ]
  ],
  "75002": [
    [
      {
        "objectid": 17,
        "id_bv": "2-17",
        "num_bv": "0017",
        "lib": "ECOLE ELEMENTAIRE",
        "adresse": "20 RUE ETIENNE MARCEL",
        "cp": "75002",
        "lat": 48.86414057695331,
        "lon": 2.348314568868275
      },
      {
        "objectid": 20,
        "id_bv": "2-20",
        "num_bv": "0020",
        "lib": "ECOLE MATERNELLE",
        "adresse": "12 RUE DUSSOUBS",
        "cp": "75002",
        "lat": 48.865144309104245,
        "lon": 2.3486848396702316
      },
      {
        "objectid": 13,
        "id_bv": "2-13",
        "num_bv": "0013",
        "lib": "COLLÈGE CÉSAR-FRANCK",
        "adresse": "7 RUE DE LA JUSSIENNE",
        "cp": "75002",
        "lat": 48.865419096296144,
        "lon": 2.3443292152534987
      },
      {
        "objectid": 16,
        "id_bv": "2-16",
        "num_bv": "0016",
        "lib": "ECOLE ELEMENTAIRE",
        "adresse": "3 RUE DE LA JUSSIENNE",
        "cp": "75002",
        "lat": 48.865300040076086,
        "lon": 2.3440910497507095
      },
      {
        "objectid": 14,
        "id_bv": "2-14",
        "num_bv": "0014",
        "lib": "GYMNASE JEAN DAME",
        "adresse": "17 RUE LEOPOLD BELLAN",
        "cp": "75002",
        "lat": 48.8665683457938,
        "lon": 2.3455065039912304
      },
      {
        "objectid": 18,
        "id_bv": "2-18",
        "num_bv": "0018",
        "lib": "ECOLE ELEMENTAIRE",
        "adresse": "44 RUE DUSSOUBS",
        "cp": "75002",
        "lat": 48.867408663080276,
        "lon": 2.3498023426054093
      },
      {
        "objectid": 11,
        "id_bv": "2-11",
        "num_bv": "0011",
        "lib": "MAISON DES SOLIDARITÉS",
        "adresse": "8 RUE DE LA BANQUE",
        "cp": "75002",
        "lat": 48.86683453210326,
        "lon": 2.340450810739268
      }
    ]
  ],
  "75003": [
    [
      {
        "objectid": 22,
        "id_bv": "3-22",
        "num_bv": "0022",
        "lib": "MAIRIE DE PARIS CENTRE",
        "adresse": "2 RUE EUGENE SPULLER",
        "cp": "75003",
        "lat": 48.863992029026946,
        "lon": 2.361531966984655
      },
      {
        "objectid": 23,
        "id_bv": "3-23",
        "num_bv": "0023",
        "lib": "MAIRIE DE PARIS CENTRE",
        "adresse": "46 RUE DE BRETAGNE",
        "cp": "75003",
        "lat": 48.863535718378934,
        "lon": 2.361534263324101
      },
      {
        "objectid": 32,
        "id_bv": "3-32",
        "num_bv": "0032",
        "lib": "ECOLE ELEMENTAIRE",
        "adresse": "8 RUE DES VERTUS",
        "cp": "75003",
        "lat": 48.864164454502415,
        "lon": 2.357872706579547
      },
      {
        "objectid": 26,
        "id_bv": "3-26",
        "num_bv": "0026",
        "lib": "ANNEXE LYCEE SIMONE VEIL",
        "adresse": "28 RUE DEBELLEYME",
        "cp": "75003",
        "lat": 48.861952684683246,
        "lon": 2.3635352181626357
      },
      {
        "objectid": 34,
        "id_bv": "3-34",
        "num_bv": "0034",
        "lib": "LYCEE TURGOT",
        "adresse": "69 RUE DE TURBIGO",
        "cp": "75003",
        "lat": 48.866192510593486,
        "lon": 2.358843350956116
      }
    ],
    [
      {
        "objectid": 25,
        "id_bv": "3-25",
        "num_bv": "0025",
        "lib": "ECOLE ELEMENTAIRE",
        "adresse": "10BIS RUE DES QUATRE FILS",
        "cp": "75003",
        "lat": 48.860411905046135,
        "lon": 2.360156188007353
      },
      {
        "objectid": 28,
        "id_bv": "3-28",
        "num_bv": "0028",
        "lib": "LYCEE VICTOR HUGO",
        "adresse": "6 RUE PAYENNE",
        "cp": "75003",
        "lat": 48.85782772158602,
        "lon": 2.3622754046270944
      },
      {
        "objectid": 27,
        "id_bv": "3-27",
        "num_bv": "0027",
        "lib": "ECOLE ELEMENTAIRE",
        "adresse": "54 RUE DE TURENNE",
        "cp": "75003",
        "lat": 48.85856654262471,
        "lon": 2.3646186378006946
      }
    ],
    [
      {
        "objectid": 31,
        "id_bv": "3-31",
        "num_bv": "0031",
        "lib": "ECOLE ELEMENTAIRE",
        "adresse": "211 RUE SAINT MARTIN",
        "cp": "75003",
        "lat": 48.86407166768252,
        "lon": 2.352812315749296
      },
      {
        "objectid": 30,
        "id_bv": "3-30",
        "num_bv": "0030",
        "lib": "ECOLE MATERNELLE",
        "adresse": "25 RUE CHAPON",
        "cp": "75003",
        "lat": 48.86362013024119,
        "lon": 2.3551721154803693
      },
      {
        "objectid": 33,
        "id_bv": "3-33",
        "num_bv": "0033",
        "lib": "ECOLE ELEMENTAIRE",
        "adresse": "6 RUE VAUCANSON",
        "cp": "75003",
        "lat": 48.86711766437895,
        "lon": 2.356788105852401
      }
    ]
  ],
  "75004": [
    [
      {
        "objectid": 40,
        "id_bv": "4-40",
        "num_bv": "0040",
        "lib": "ÉCOLE POLYVALENTE RAPHAËL-ESRAIL",
        "adresse": "22 RUE DE L AVE MARIA",
        "cp": "75004",
        "lat": 48.853181257782545,
        "lon": 2.359861989536493
      },
      {
        "objectid": 44,
        "id_bv": "4-44",
        "num_bv": "0044",
        "lib": "ECOLE MATERNELLE",
        "adresse": "18 RUE POULLETIER",
        "cp": "75004",
        "lat": 48.851470738765705,
        "lon": 2.3583141381547668
      },
      {
        "objectid": 45,
        "id_bv": "4-45",
        "num_bv": "0045",
        "lib": "ECOLE ELEMENTAIRE",
        "adresse": "21 RUE SAINT LOUIS EN L ILE",
        "cp": "75004",
        "lat": 48.8515357231618,
        "lon": 2.357240562416797
      },
      {
        "objectid": 49,
        "id_bv": "4-49",
        "num_bv": "0049",
        "lib": "COLLEGE FRANCOIS COUPERIN",
        "adresse": "2 ALLEE DES JUSTES DE FRANCE",
        "cp": "75004",
        "lat": 48.85505968451521,
        "lon": 2.356278387572588
      }
    ],
    [
      {
        "objectid": 36,
        "id_bv": "4-36",
        "num_bv": "0036",
        "lib": "ACADÉMIE DU CLIMAT",
        "adresse": "2 PLACE BAUDOYER",
        "cp": "75004",
        "lat": 48.85620004855222,
        "lon": 2.3556811148272825
      },
      {
        "objectid": 47,
        "id_bv": "4-47",
        "num_bv": "0047",
        "lib": "ECOLE MATERNELLE",
        "adresse": "40 RUE DES ARCHIVES",
        "cp": "75004",
        "lat": 48.85898585259308,
        "lon": 2.355977137595205
      },
      {
        "objectid": 37,
        "id_bv": "4-37",
        "num_bv": "0037",
        "lib": "ECOLE ELEMENTAIRE",
        "adresse": "9 RUE DE MOUSSY",
        "cp": "75004",
        "lat": 48.85773889876201,
        "lon": 2.3556145242480637
      },
      {
        "objectid": 48,
        "id_bv": "4-48",
        "num_bv": "0048",
        "lib": "ECOLE ELEMENTAIRE",
        "adresse": "16 RUE DU RENARD",
        "cp": "75004",
        "lat": 48.85911493804006,
        "lon": 2.3524903047974846
      }
    ],
    [
      {
        "objectid": 41,
        "id_bv": "4-41",
        "num_bv": "0041",
        "lib": "LYCEE PROFESSIONNEL THEOPHILE GAUTIER",
        "adresse": "6BIS PLACE DES VOSGES",
        "cp": "75004",
        "lat": 48.85480003628365,
        "lon": 2.366255676474799
      },
      {
        "objectid": 42,
        "id_bv": "4-42",
        "num_bv": "0042",
        "lib": "ECOLE ELEMENTAIRE",
        "adresse": "21 RUE DES TOURNELLES",
        "cp": "75004",
        "lat": 48.855067201395684,
        "lon": 2.367207190779995
      },
      {
        "objectid": 43,
        "id_bv": "4-43",
        "num_bv": "0043",
        "lib": "MAIRIE DE PARIS - DIRECTION DES AFFAIRES SCOLAIRES",
        "adresse": "3 RUE DE L ARSENAL",
        "cp": "75004",
        "lat": 48.850083254000864,
        "lon": 2.3654038687861334
      },
      {
        "objectid": 38,
        "id_bv": "4-38",
        "num_bv": "0038",
        "lib": "ECOLE ELEMENTAIRE",
        "adresse": "10 RUE DES HOSPITALIERES SAINT GERVAIS",
        "cp": "75004",
        "lat": 48.85791477999804,
        "lon": 2.359141782019036
      }
    ]
  ],
  "75005": [
    [
      {
        "objectid": 63,
        "id_bv": "5-13",
        "num_bv": "0013",
        "lib": "INSTITUT PIERRE GILLES DE GENES",
        "adresse": "6 RUE JEAN CALVIN",
        "cp": "75005",
        "lat": 48.84164821134452,
        "lon": 2.348946514318469
      },
      {
        "objectid": 55,
        "id_bv": "5-5",
        "num_bv": "0005",
        "lib": "ECOLE ELEMENTAIRE",
        "adresse": "2BIS RUE PIERRE BROSSOLETTE",
        "cp": "75005",
        "lat": 48.842073487868916,
        "lon": 2.3471772421141894
      },
      {
        "objectid": 66,
        "id_bv": "5-16",
        "num_bv": "0016",
        "lib": "GYMNASE DES PATRIARCHES",
        "adresse": "5 PLACE BERNARD HALPERN",
        "cp": "75005",
        "lat": 48.84058969993948,
        "lon": 2.350808454056069
      },
      {
        "objectid": 62,
        "id_bv": "5-12",
        "num_bv": "0012",
        "lib": "ECOLE ELEMENTAIRE",
        "adresse": "41 RUE DE L ARBALETE",
        "cp": "75005",
        "lat": 48.83940176989441,
        "lon": 2.346485249111332
      },
      {
        "objectid": 75,
        "id_bv": "5-25",
        "num_bv": "0025",
        "lib": "ECOLE ELEMENTAIRE",
        "adresse": "10 RUE ROLLIN",
        "cp": "75005",
        "lat": 48.84474885714731,
        "lon": 2.3508535762016693
      },
      {
        "objectid": 56,
        "id_bv": "5-6",
        "num_bv": "0006",
        "lib": "ECOLE MATERNELLE",
        "adresse": "22 RUE DES LYONNAIS",
        "cp": "75005",
        "lat": 48.83851906077395,
        "lon": 2.34647251307979
      },
      {
        "objectid": 74,
        "id_bv": "5-24",
        "num_bv": "0024",
        "lib": "ECOLE ELEMENTAIRE",
        "adresse": "19 RUE DES BOULANGERS",
        "cp": "75005",
        "lat": 48.845858819973735,
        "lon": 2.3529941292266194
      }
    ],
    [
      {
        "objectid": 53,
        "id_bv": "5-3",
        "num_bv": "0003",
        "lib": "LE PHILANTRO-LAB",
        "adresse": "15 RUE DE LA BUCHERIE",
        "cp": "75005",
        "lat": 48.85181050506836,
        "lon": 2.3484758821149603
      },
      {
        "objectid": 54,
        "id_bv": "5-4",
        "num_bv": "0004",
        "lib": "ECOLE MATERNELLE",
        "adresse": "10 RUE DU SOMMERARD",
        "cp": "75005",
        "lat": 48.84994332745858,
        "lon": 2.3468716922312143
      },
      {
        "objectid": 72,
        "id_bv": "5-22",
        "num_bv": "0022",
        "lib": "ECOLE ELEMENTAIRE",
        "adresse": "21 RUE DE PONTOISE",
        "cp": "75005",
        "lat": 48.84874986538412,
        "lon": 2.3512641115758526
      },
      {
        "objectid": 71,
        "id_bv": "5-21",
        "num_bv": "0021",
        "lib": "ECOLE MATERNELLE",
        "adresse": "27 RUE DE POISSY",
        "cp": "75005",
        "lat": 48.84859294064997,
        "lon": 2.3522779392607136
      },
      {
        "objectid": 73,
        "id_bv": "5-23",
        "num_bv": "0023",
        "lib": "COLLEGE ROGNONI",
        "adresse": "24 RUE DU CARDINAL LEMOINE",
        "cp": "75005",
        "lat": 48.848273051257465,
        "lon": 2.3532818484701146
      },
      {
        "objectid": 52,
        "id_bv": "5-2",
        "num_bv": "0002",
        "lib": "MAIRIE D'ARRONDISSEMENT",
        "adresse": "21 PLACE DU PANTHEON",
        "cp": "75005",
        "lat": 48.8461917134551,
        "lon": 2.344580878638506
      }
    ],
    [
      {
        "objectid": 67,
        "id_bv": "5-17",
        "num_bv": "0017",
        "lib": "COLLEGE RAYMOND QUENEAU",
        "adresse": "66 BOULEVARD SAINT MARCEL",
        "cp": "75005",
        "lat": 48.837896361480524,
        "lon": 2.354673915662758
      },
      {
        "objectid": 69,
        "id_bv": "5-19",
        "num_bv": "0019",
        "lib": "GYMNASE POLIVEAU",
        "adresse": "39BIS RUE POLIVEAU",
        "cp": "75005",
        "lat": 48.8398121523585,
        "lon": 2.3574807490387935
      },
      {
        "objectid": 65,
        "id_bv": "5-15",
        "num_bv": "0015",
        "lib": "ACEL SAINT-MEDARD",
        "adresse": "14 RUE CENSIER",
        "cp": "75005",
        "lat": 48.840881433388624,
        "lon": 2.3544292206082544
      },
      {
        "objectid": 70,
        "id_bv": "5-20",
        "num_bv": "0020",
        "lib": "ECOLE ELEMENTAIRE",
        "adresse": "11 RUE BUFFON",
        "cp": "75005",
        "lat": 48.84279872859071,
        "lon": 2.3624759744779698
      }
    ],
    [
      {
        "objectid": 60,
        "id_bv": "5-10",
        "num_bv": "0010",
        "lib": "LYCEE LAVOISIER",
        "adresse": "10 RUE PIERRE NICOLE",
        "cp": "75005",
        "lat": 48.84231459855475,
        "lon": 2.3405576907383376
      },
      {
        "objectid": 59,
        "id_bv": "5-9",
        "num_bv": "0009",
        "lib": "LYCEE LAVOISIER",
        "adresse": "17 RUE HENRI BARBUSSE",
        "cp": "75005",
        "lat": 48.842354565353766,
        "lon": 2.3392948013920187
      },
      {
        "objectid": 57,
        "id_bv": "5-7",
        "num_bv": "0007",
        "lib": "ECOLE ELEMENTAIRE",
        "adresse": "250BIS RUE SAINT JACQUES",
        "cp": "75005",
        "lat": 48.84377708172341,
        "lon": 2.3416321033596437
      },
      {
        "objectid": 58,
        "id_bv": "5-8",
        "num_bv": "0008",
        "lib": "ECOLE MATERNELLE",
        "adresse": "242 RUE SAINT JACQUES",
        "cp": "75005",
        "lat": 48.84377708172341,
        "lon": 2.3416321033596437
      }
    ]
  ],
  "75006": [
    [
      {
        "objectid": 97,
        "id_bv": "6-22",
        "num_bv": "0022",
        "lib": "ECOLE ALSACIENNE",
        "adresse": "109 RUE NOTRE DAME DES CHAMPS",
        "cp": "75006",
        "lat": 48.84101765374511,
        "lon": 2.333814831351787
      },
      {
        "objectid": 95,
        "id_bv": "6-20",
        "num_bv": "0020",
        "lib": "INSTITUT NOTRE DAME DE SION",
        "adresse": "61 RUE NOTRE DAME DES CHAMPS",
        "cp": "75006",
        "lat": 48.843737790144765,
        "lon": 2.33105298534258
      },
      {
        "objectid": 85,
        "id_bv": "6-10",
        "num_bv": "0010",
        "lib": "LYCEE MONTAIGNE",
        "adresse": "15 RUE AUGUSTE COMTE",
        "cp": "75006",
        "lat": 48.84421471233439,
        "lon": 2.335895614781427
      },
      {
        "objectid": 94,
        "id_bv": "6-19",
        "num_bv": "0019",
        "lib": "INSTITUT SAINTE GENEVIEVE",
        "adresse": "64 RUE D ASSAS",
        "cp": "75006",
        "lat": 48.84578948149618,
        "lon": 2.331379310764641
      },
      {
        "objectid": 93,
        "id_bv": "6-18",
        "num_bv": "0018",
        "lib": "COLLEGE STANISLAS",
        "adresse": "28 RUE DU MONTPARNASSE",
        "cp": "75006",
        "lat": 48.84405341503356,
        "lon": 2.32712727370123
      },
      {
        "objectid": 88,
        "id_bv": "6-13",
        "num_bv": "0013",
        "lib": "CENTRE ANDRE MALRAUX",
        "adresse": "112 RUE DE RENNES",
        "cp": "75006",
        "lat": 48.84786986121504,
        "lon": 2.3275296024813397
      },
      {
        "objectid": 92,
        "id_bv": "6-17",
        "num_bv": "0017",
        "lib": "ECOLE ELEMENTAIRE",
        "adresse": "6 RUE LITTRE",
        "cp": "75006",
        "lat": 48.845643225089894,
        "lon": 2.3237731037320843
      }
    ],
    [
      {
        "objectid": 82,
        "id_bv": "6-7",
        "num_bv": "0007",
        "lib": "MAIRIE D'ARRONDISSEMENT",
        "adresse": "78 RUE BONAPARTE",
        "cp": "75006",
        "lat": 48.850536530502545,
        "lon": 2.332611371510001
      },
      {
        "objectid": 86,
        "id_bv": "6-11",
        "num_bv": "0011",
        "lib": "MAIRIE D'ARRONDISSEMENT",
        "adresse": "19 RUE MADAME",
        "cp": "75006",
        "lat": 48.850510724486526,
        "lon": 2.3319479311912494
      },
      {
        "objectid": 87,
        "id_bv": "6-12",
        "num_bv": "0012",
        "lib": "ECOLE ELEMENTAIRE",
        "adresse": "42 RUE MADAME",
        "cp": "75006",
        "lat": 48.848942267020306,
        "lon": 2.3316036078834244
      },
      {
        "objectid": 84,
        "id_bv": "6-9",
        "num_bv": "0009",
        "lib": "COLLEGE JACQUES PREVERT",
        "adresse": "18 RUE SAINT BENOIT",
        "cp": "75006",
        "lat": 48.85473387640437,
        "lon": 2.3328455413991156
      },
      {
        "objectid": 80,
        "id_bv": "6-5",
        "num_bv": "0005",
        "lib": "ECOLE ELEMENTAIRE",
        "adresse": "7 RUE DU JARDINET",
        "cp": "75006",
        "lat": 48.85266457532374,
        "lon": 2.340008398294922
      },
      {
        "objectid": 79,
        "id_bv": "6-4",
        "num_bv": "0004",
        "lib": "LYCEE FENELON",
        "adresse": "45 RUE SAINT ANDRE DES ARTS",
        "cp": "75006",
        "lat": 48.85336719328336,
        "lon": 2.340374436150295
      },
      {
        "objectid": 78,
        "id_bv": "6-3",
        "num_bv": "0003",
        "lib": "LYCEE SAINT-LOUIS",
        "adresse": "40 BOULEVARD SAINT-MICHEL",
        "cp": "75006",
        "lat": 48.84954006740751,
        "lon": 2.341954601282852
      }
    ]
  ],
  "75007": [
    [
      {
        "objectid": 122,
        "id_bv": "7-25",
        "num_bv": "0025",
        "lib": "GYMNASE MUNICIPAL CAMOU",
        "adresse": "35 AVENUE DE LA BOURDONNAIS",
        "cp": "75007",
        "lat": 48.858518264736155,
        "lon": 2.2990489894506227
      },
      {
        "objectid": 121,
        "id_bv": "7-24",
        "num_bv": "0024",
        "lib": "ECOLE ELEMENTAIRE",
        "adresse": "1 RUE GENERAL CAMOU",
        "cp": "75007",
        "lat": 48.85889064981972,
        "lon": 2.2998593908606173
      },
      {
        "objectid": 119,
        "id_bv": "7-22",
        "num_bv": "0022",
        "lib": "ECOLE MATERNELLE",
        "adresse": "28 AVENUE RAPP",
        "cp": "75007",
        "lat": 48.85863065424093,
        "lon": 2.300206056119465
      },
      {
        "objectid": 118,
        "id_bv": "7-21",
        "num_bv": "0021",
        "lib": "ECOLE MATERNELLE",
        "adresse": "117BIS RUE SAINT DOMINIQUE",
        "cp": "75007",
        "lat": 48.858949376871394,
        "lon": 2.3043245040764107
      },
      {
        "objectid": 115,
        "id_bv": "7-18",
        "num_bv": "0018",
        "lib": "COLLEGE JULES ROMAINS",
        "adresse": "6 RUE CLER",
        "cp": "75007",
        "lat": 48.85846458705567,
        "lon": 2.3054337930801414
      }
    ],
    [
      {
        "objectid": 102,
        "id_bv": "7-5",
        "num_bv": "0005",
        "lib": "INSTITUT D'ETUDES POLITIQUES",
        "adresse": "28 RUE DES SAINTS PERES",
        "cp": "75007",
        "lat": 48.8556402094137,
        "lon": 2.331004491466167
      },
      {
        "objectid": 104,
        "id_bv": "7-7",
        "num_bv": "0007",
        "lib": "INSTITUT D'ETUDES POLITIQUES",
        "adresse": "27 RUE SAINT GUILLAUME",
        "cp": "75007",
        "lat": 48.854133984453114,
        "lon": 2.3283959060823007
      },
      {
        "objectid": 105,
        "id_bv": "7-8",
        "num_bv": "0008",
        "lib": "ECOLE POLYVALENTE",
        "adresse": "8 RUE CHOMEL",
        "cp": "75007",
        "lat": 48.85217392329926,
        "lon": 2.325549473123569
      }
    ],
    [
      {
        "objectid": 110,
        "id_bv": "7-13",
        "num_bv": "0013",
        "lib": "ECOLE ELEMENTAIRE",
        "adresse": "14 RUE EBLE",
        "cp": "75007",
        "lat": 48.84899535822621,
        "lon": 2.3129223062855884
      },
      {
        "objectid": 109,
        "id_bv": "7-12",
        "num_bv": "0012",
        "lib": "ECOLE ELEMENTAIRE",
        "adresse": "42 AVENUE DUQUESNE",
        "cp": "75007",
        "lat": 48.8495929466452,
        "lon": 2.3130242677669917
      },
      {
        "objectid": 107,
        "id_bv": "7-10",
        "num_bv": "0010",
        "lib": "ECOLE MATERNELLE",
        "adresse": "48 RUE VANEAU",
        "cp": "75007",
        "lat": 48.85120383339608,
        "lon": 2.319164370244829
      },
      {
        "objectid": 100,
        "id_bv": "7-3",
        "num_bv": "0003",
        "lib": "LYCEE VICTOR DURUY",
        "adresse": "33 BOULEVARD DES INVALIDES",
        "cp": "75007",
        "lat": 48.85230001416875,
        "lon": 2.31484794519197
      }
    ],
    [
      {
        "objectid": 99,
        "id_bv": "7-2",
        "num_bv": "0002",
        "lib": "ECOLE POLYVALENTE",
        "adresse": "27 RUE LAS CASES",
        "cp": "75007",
        "lat": 48.858978425884516,
        "lon": 2.3185914459935137
      },
      {
        "objectid": 103,
        "id_bv": "7-6",
        "num_bv": "0006",
        "lib": "MAIRIE D'ARRONDISSEMENT",
        "adresse": "116 RUE DE GRENELLE",
        "cp": "75007",
        "lat": 48.85686648113951,
        "lon": 2.32004369465137
      },
      {
        "objectid": 113,
        "id_bv": "7-16",
        "num_bv": "0016",
        "lib": "ECOLE ELEMENTAIRE",
        "adresse": "10 AVENUE DE LA MOTTE PICQUET",
        "cp": "75007",
        "lat": 48.85691248957069,
        "lon": 2.3090800630089046
      },
      {
        "objectid": 117,
        "id_bv": "7-20",
        "num_bv": "0020",
        "lib": "MAISON DE LA VIE ASSOCIATIVE ET CITOYENNE",
        "adresse": "4 RUE AMELIE",
        "cp": "75007",
        "lat": 48.8594222850967,
        "lon": 2.307339601076246
      }
    ]
  ],
  "75008": [
    [
      {
        "objectid": 128,
        "id_bv": "8-6",
        "num_bv": "0006",
        "lib": "LYCEE CHAPTAL",
        "adresse": "12 RUE BERNOULLI",
        "cp": "75008",
        "lat": 48.88068514819476,
        "lon": 2.31970085999768
      },
      {
        "objectid": 125,
        "id_bv": "8-3",
        "num_bv": "0003",
        "lib": "CRR DE PARIS - IDA RUBINSTEIN",
        "adresse": "14 RUE DE MADRID",
        "cp": "75008",
        "lat": 48.87851609561387,
        "lon": 2.3206994215375825
      },
      {
        "objectid": 127,
        "id_bv": "8-5",
        "num_bv": "0005",
        "lib": "COLLEGE OCTAVE GREARD",
        "adresse": "28-30 RUE DU GENERAL FOY",
        "cp": "75008",
        "lat": 48.87881483944247,
        "lon": 2.3176935382601296
      },
      {
        "objectid": 126,
        "id_bv": "8-4",
        "num_bv": "0004",
        "lib": "LYCEE RACINE - ANNEXE",
        "adresse": "38 RUE DE NAPLES",
        "cp": "75008",
        "lat": 48.879313359632796,
        "lon": 2.316406689843671
      },
      {
        "objectid": 123,
        "id_bv": "8-1",
        "num_bv": "0001",
        "lib": "MAIRIE D'ARRONDISSEMENT",
        "adresse": "3 RUE DE LISBONNE",
        "cp": "75008",
        "lat": 48.8777530636741,
        "lon": 2.3175182901087505
      },
      {
        "objectid": 131,
        "id_bv": "8-9",
        "num_bv": "0009",
        "lib": "ECOLE MATERNELLE",
        "adresse": "12 RUE DE LA BIENFAISANCE",
        "cp": "75008",
        "lat": 48.8768149644328,
        "lon": 2.320127040349501
      }
    ],
    [
      {
        "objectid": 132,
        "id_bv": "8-10",
        "num_bv": "0010",
        "lib": "ECOLE ELEMENTAIRE",
        "adresse": "18-20 RUE DE SURENE",
        "cp": "75008",
        "lat": 48.871059892224885,
        "lon": 2.320572529315915
      },
      {
        "objectid": 134,
        "id_bv": "8-12",
        "num_bv": "0012",
        "lib": "ECOLE MATERNELLE",
        "adresse": "16 RUE ROQUEPINE",
        "cp": "75008",
        "lat": 48.873350721272345,
        "lon": 2.3184978758463965
      },
      {
        "objectid": 133,
        "id_bv": "8-11",
        "num_bv": "0011",
        "lib": "GYMNASE ROQUEPINE",
        "adresse": "18 RUE ROQUEPINE",
        "cp": "75008",
        "lat": 48.873329203665506,
        "lon": 2.318278661009044
      },
      {
        "objectid": 135,
        "id_bv": "8-13",
        "num_bv": "0013",
        "lib": "ECOLE ELEMENTAIRE",
        "adresse": "10 RUE PAUL BAUDRY",
        "cp": "75008",
        "lat": 48.872345261917935,
        "lon": 2.3074041546028345
      }
    ],
    [
      {
        "objectid": 136,
        "id_bv": "8-14",
        "num_bv": "0014",
        "lib": "COMPLEXE SPORTIF JACQUELINE AURIOL",
        "adresse": "7 ALLEE LOUIS DE FUNES",
        "cp": "75008",
        "lat": 48.87624248559516,
        "lon": 2.3062590196044797
      },
      {
        "objectid": 138,
        "id_bv": "8-16",
        "num_bv": "0016",
        "lib": "MAISON DE LA VIE ASSOCIATIVE ET CITOYENNE",
        "adresse": "28 RUE LAURE DIEBOLD",
        "cp": "75008",
        "lat": 48.87602928302369,
        "lon": 2.3047848269496978
      },
      {
        "objectid": 139,
        "id_bv": "8-17",
        "num_bv": "0017",
        "lib": "ECOLE ELEMENTAIRE",
        "adresse": "7 RUE ROBERT ESTIENNE",
        "cp": "75008",
        "lat": 48.868667684155575,
        "lon": 2.3052160164381905
      },
      {
        "objectid": 140,
        "id_bv": "8-18",
        "num_bv": "0018",
        "lib": "ECOLE ELEMENTAIRE",
        "adresse": "8 RUE ROBERT ESTIENNE",
        "cp": "75008",
        "lat": 48.86861806140767,
        "lon": 2.305114779265024
      }
    ],
    [
      {
        "objectid": 129,
        "id_bv": "8-7",
        "num_bv": "0007",
        "lib": "COLLEGE CONDORCET",
        "adresse": "61 RUE D AMSTERDAM",
        "cp": "75008",
        "lat": 48.88097843614336,
        "lon": 2.3269716355476806
      },
      {
        "objectid": 130,
        "id_bv": "8-8",
        "num_bv": "0008",
        "lib": "ECOLE MATERNELLE",
        "adresse": "7 RUE DE MOSCOU",
        "cp": "75008",
        "lat": 48.880035209701354,
        "lon": 2.3259924560135192
      }
    ]
  ],
  "75009": [
    [
      {
        "objectid": 155,
        "id_bv": "9-15",
        "num_bv": "0015",
        "lib": "LYCEE JULES FERRY",
        "adresse": "77 BOULEVARD DE CLICHY",
        "cp": "75009",
        "lat": 48.88407435698855,
        "lon": 2.3290974105834676
      },
      {
        "objectid": 156,
        "id_bv": "9-16",
        "num_bv": "0016",
        "lib": "ECOLE ELEMENTAIRE",
        "adresse": "32 RUE DE BRUXELLES",
        "cp": "75009",
        "lat": 48.88299974868486,
        "lon": 2.328801398380973
      },
      {
        "objectid": 153,
        "id_bv": "9-13",
        "num_bv": "0013",
        "lib": "BIBLIOTHEQUE LOUISE WALSER-GAILLARD",
        "adresse": "26 RUE CHAPTAL",
        "cp": "75009",
        "lat": 48.8811113359397,
        "lon": 2.3323455598268845
      },
      {
        "objectid": 154,
        "id_bv": "9-14",
        "num_bv": "0014",
        "lib": "ECOLE ELEMENTAIRE",
        "adresse": "12 RUE CHAPTAL",
        "cp": "75009",
        "lat": 48.8808246505541,
        "lon": 2.3336321508493523
      },
      {
        "objectid": 149,
        "id_bv": "9-9",
        "num_bv": "0009",
        "lib": "ECOLE MATERNELLE",
        "adresse": "9BIS RUE BLANCHE",
        "cp": "75009",
        "lat": 48.87806920962763,
        "lon": 2.3317475455949337
      },
      {
        "objectid": 148,
        "id_bv": "9-8",
        "num_bv": "0008",
        "lib": "ECOLE ELEMENTAIRE",
        "adresse": "9 RUE BLANCHE",
        "cp": "75009",
        "lat": 48.87796815082263,
        "lon": 2.3317864542470135
      },
      {
        "objectid": 157,
        "id_bv": "9-17",
        "num_bv": "0017",
        "lib": "ECOLE ELEMENTAIRE",
        "adresse": "10 RUE DE CLICHY",
        "cp": "75009",
        "lat": 48.877726912911555,
        "lon": 2.3304673759191976
      },
      {
        "objectid": 147,
        "id_bv": "9-7",
        "num_bv": "0007",
        "lib": "LYCEE CONDORCET",
        "adresse": "65 RUE DE CAUMARTIN",
        "cp": "75009",
        "lat": 48.87471293958444,
        "lon": 2.3283008325897607
      }
    ],
    [
      {
        "objectid": 161,
        "id_bv": "9-21",
        "num_bv": "0021",
        "lib": "ECOLE MATERNELLE",
        "adresse": "22 RUE MARGUERITE DE ROCHECHOUART",
        "cp": "75009",
        "lat": 48.8777638014423,
        "lon": 2.3449525194534546
      },
      {
        "objectid": 145,
        "id_bv": "9-5",
        "num_bv": "0005",
        "lib": "ÉCOLE POLYVALENTE MADELEINE-PAULIAC",
        "adresse": "32 RUE BUFFAULT",
        "cp": "75009",
        "lat": 48.87631292851756,
        "lon": 2.342436570832638
      },
      {
        "objectid": 159,
        "id_bv": "9-19",
        "num_bv": "0019",
        "lib": "GYMNASE PAUL GAUGUIN",
        "adresse": "35 RUE MILTON",
        "cp": "75009",
        "lat": 48.87926571986978,
        "lon": 2.342436699677934
      },
      {
        "objectid": 166,
        "id_bv": "9-26",
        "num_bv": "0026",
        "lib": "ECOLE ELEMENTAIRE",
        "adresse": "15 RUE TURGOT",
        "cp": "75009",
        "lat": 48.88050057892444,
        "lon": 2.345147055081886
      },
      {
        "objectid": 162,
        "id_bv": "9-22",
        "num_bv": "0022",
        "lib": "LYCEE LAMARTINE",
        "adresse": "121 RUE DU FAUBOURG POISSONNIERE",
        "cp": "75009",
        "lat": 48.87838140269633,
        "lon": 2.349089434800358
      },
      {
        "objectid": 160,
        "id_bv": "9-20",
        "num_bv": "0020",
        "lib": "ECOLE ELEMENTAIRE",
        "adresse": "10 RUE HIPPOLYTE LEBAS",
        "cp": "75009",
        "lat": 48.87719337084134,
        "lon": 2.340432312779606
      }
    ],
    [
      {
        "objectid": 167,
        "id_bv": "9-27",
        "num_bv": "0027",
        "lib": "ECOLE MATERNELLE",
        "adresse": "68 RUE MARGUERITE DE ROCHECHOUART",
        "cp": "75009",
        "lat": 48.88138666653584,
        "lon": 2.3465943852883053
      },
      {
        "objectid": 164,
        "id_bv": "9-24",
        "num_bv": "0024",
        "lib": "COLLEGE ET LYCEE JACQUES DECOUR",
        "adresse": "20 RUE BOCHART DE SARON",
        "cp": "75009",
        "lat": 48.88203481101911,
        "lon": 2.3422219854128112
      },
      {
        "objectid": 152,
        "id_bv": "9-12",
        "num_bv": "0012",
        "lib": "LYCEE EDGAR QUINET",
        "adresse": "63 RUE DES MARTYRS",
        "cp": "75009",
        "lat": 48.8812506655355,
        "lon": 2.3398739812328992
      }
    ],
    [
      {
        "objectid": 142,
        "id_bv": "9-2",
        "num_bv": "0002",
        "lib": "MAIRIE D'ARRONDISSEMENT",
        "adresse": "6 RUE DROUOT",
        "cp": "75009",
        "lat": 48.872598614738386,
        "lon": 2.3404417969037365
      },
      {
        "objectid": 144,
        "id_bv": "9-4",
        "num_bv": "0004",
        "lib": "ECOLE MATERNELLE",
        "adresse": "11 RUE DE LA GRANGE BATELIERE",
        "cp": "75009",
        "lat": 48.87301747416565,
        "lon": 2.3420637927498813
      },
      {
        "objectid": 146,
        "id_bv": "9-6",
        "num_bv": "0006",
        "lib": "ECOLE ELEMENTAIRE",
        "adresse": "16 RUE DE LA VICTOIRE",
        "cp": "75009",
        "lat": 48.875147556795085,
        "lon": 2.3391898769764428
      },
      {
        "objectid": 151,
        "id_bv": "9-11",
        "num_bv": "0011",
        "lib": "ECOLE MATERNELLE",
        "adresse": "12 RUE CLAUZEL",
        "cp": "75009",
        "lat": 48.87916167987755,
        "lon": 2.3386679517734232
      },
      {
        "objectid": 163,
        "id_bv": "9-23",
        "num_bv": "0023",
        "lib": "ECOLE ELEMENTAIRE",
        "adresse": "45 RUE L E DE LA TOUR D AUVERGNE",
        "cp": "75009",
        "lat": 48.87972248041201,
        "lon": 2.340911945914544
      }
    ]
  ],
  "75010": [
    [
      {
        "objectid": 171,
        "id_bv": "10-4",
        "num_bv": "0004",
        "lib": "ECOLE ELEMENTAIRE",
        "adresse": "17 RUE DE MARSEILLE",
        "cp": "75010",
        "lat": 48.871751615149755,
        "lon": 2.363824660794207
      },
      {
        "objectid": 173,
        "id_bv": "10-6",
        "num_bv": "0006",
        "lib": "COLLEGE LOUISE MICHEL",
        "adresse": "11 RUE JEAN POULMARCH",
        "cp": "75010",
        "lat": 48.872309055907564,
        "lon": 2.3636082455728107
      },
      {
        "objectid": 174,
        "id_bv": "10-7",
        "num_bv": "0007",
        "lib": "ECOLE MATERNELLE",
        "adresse": "6 RUE LEGOUVE",
        "cp": "75010",
        "lat": 48.87225487353878,
        "lon": 2.3621754066834058
      },
      {
        "objectid": 169,
        "id_bv": "10-2",
        "num_bv": "0002",
        "lib": "CENTRE SPORTIF JEAN VERDIER",
        "adresse": "11 RUE DE LANCRY",
        "cp": "75010",
        "lat": 48.869406661781476,
        "lon": 2.360229808347259
      },
      {
        "objectid": 175,
        "id_bv": "10-8",
        "num_bv": "0008",
        "lib": "ECOLE ELEMENTAIRE",
        "adresse": "23 RUE DES RECOLLETS",
        "cp": "75010",
        "lat": 48.8747507826777,
        "lon": 2.3604856285823996
      }
    ],
    [
      {
        "objectid": 178,
        "id_bv": "10-11",
        "num_bv": "0011",
        "lib": "ECOLE ELEMENTAIRE",
        "adresse": "159 AVENUE PARMENTIER",
        "cp": "75010",
        "lat": 48.871696281004404,
        "lon": 2.3696028482640017
      },
      {
        "objectid": 181,
        "id_bv": "10-14",
        "num_bv": "0014",
        "lib": "ECOLE MATERNELLE",
        "adresse": "155 AVENUE PARMENTIER",
        "cp": "75010",
        "lat": 48.87154681667769,
        "lon": 2.369713882266418
      },
      {
        "objectid": 180,
        "id_bv": "10-13",
        "num_bv": "0013",
        "lib": "ECOLE ELEMENTAIRE",
        "adresse": "200 RUE SAINT MAUR",
        "cp": "75010",
        "lat": 48.872232075471125,
        "lon": 2.3716848484022015
      },
      {
        "objectid": 179,
        "id_bv": "10-12",
        "num_bv": "0012",
        "lib": "GYMNASE BUISSON SAINT-LOUIS",
        "adresse": "2 RUE DU BUISSON SAINT LOUIS",
        "cp": "75010",
        "lat": 48.871757946366955,
        "lon": 2.3724769676434208
      },
      {
        "objectid": 182,
        "id_bv": "10-15",
        "num_bv": "0015",
        "lib": "ECOLE ELEMENTAIRE",
        "adresse": "16 RUE VICQ D AZIR",
        "cp": "75010",
        "lat": 48.876069605529494,
        "lon": 2.370558692993276
      },
      {
        "objectid": 183,
        "id_bv": "10-16",
        "num_bv": "0016",
        "lib": "ECOLE MATERNELLE",
        "adresse": "18 RUE VICQ D AZIR",
        "cp": "75010",
        "lat": 48.8760705156365,
        "lon": 2.3707023774682066
      },
      {
        "objectid": 184,
        "id_bv": "10-17",
        "num_bv": "0017",
        "lib": "ECOLE MATERNELLE",
        "adresse": "5 RUE BOY ZELENSKI",
        "cp": "75010",
        "lat": 48.87683463906201,
        "lon": 2.3678866239233027
      },
      {
        "objectid": 185,
        "id_bv": "10-18",
        "num_bv": "0018",
        "lib": "CENTRE ANIMATION GRANGE AUX BELLES",
        "adresse": "6 RUE BOY ZELENSKI",
        "cp": "75010",
        "lat": 48.87698187674093,
        "lon": 2.368277745870351
      }
    ],
    [
      {
        "objectid": 187,
        "id_bv": "10-20",
        "num_bv": "0020",
        "lib": "ECOLE ELEMENTAIRE",
        "adresse": "10 RUE EUGENE VARLIN",
        "cp": "75010",
        "lat": 48.87833744843906,
        "lon": 2.364774028762828
      },
      {
        "objectid": 188,
        "id_bv": "10-21",
        "num_bv": "0021",
        "lib": "COLLEGE VALMY",
        "adresse": "195 QUAI DE VALMY",
        "cp": "75010",
        "lat": 48.88144351779111,
        "lon": 2.3681630582526334
      },
      {
        "objectid": 190,
        "id_bv": "10-23",
        "num_bv": "0023",
        "lib": "ECOLE ELEMENTAIRE",
        "adresse": "216BIS RUE LA FAYETTE",
        "cp": "75010",
        "lat": 48.881903215851615,
        "lon": 2.36728258433944
      },
      {
        "objectid": 192,
        "id_bv": "10-25",
        "num_bv": "0025",
        "lib": "ECOLE MATERNELLE",
        "adresse": "49 RUE LOUIS BLANC",
        "cp": "75010",
        "lat": 48.88225967040932,
        "lon": 2.3627938935624524
      },
      {
        "objectid": 193,
        "id_bv": "10-26",
        "num_bv": "0026",
        "lib": "ECOLE MATERNELLE",
        "adresse": "39 RUE DE L AQUEDUC",
        "cp": "75010",
        "lat": 48.88247900722094,
        "lon": 2.363923023973593
      },
      {
        "objectid": 191,
        "id_bv": "10-24",
        "num_bv": "0024",
        "lib": "ECOLE ELEMENTAIRE",
        "adresse": "49BIS RUE LOUIS BLANC",
        "cp": "75010",
        "lat": 48.88240948116979,
        "lon": 2.362516253599599
      },
      {
        "objectid": 194,
        "id_bv": "10-27",
        "num_bv": "0027",
        "lib": "GYMNASE CHATEAU LANDON",
        "adresse": "46 RUE DU CHATEAU LANDON",
        "cp": "75010",
        "lat": 48.8830623135182,
        "lon": 2.3639196096239097
      }
    ],
    [
      {
        "objectid": 197,
        "id_bv": "10-30",
        "num_bv": "0030",
        "lib": "MAISON DES JEUNES SAINT-VINCENT DE PAUL",
        "adresse": "12 RUE BOSSUET",
        "cp": "75010",
        "lat": 48.878811603360454,
        "lon": 2.3524166166917766
      },
      {
        "objectid": 198,
        "id_bv": "10-31",
        "num_bv": "0031",
        "lib": "COLLEGE BERNARD PALISSY",
        "adresse": "21 RUE DES PETITS HOTELS",
        "cp": "75010",
        "lat": 48.877463465365736,
        "lon": 2.3528589943137157
      },
      {
        "objectid": 201,
        "id_bv": "10-34",
        "num_bv": "0034",
        "lib": "ECOLE ELEMENTAIRE",
        "adresse": "41 RUE DE CHABROL",
        "cp": "75010",
        "lat": 48.876814309248495,
        "lon": 2.3530186566258924
      },
      {
        "objectid": 199,
        "id_bv": "10-32",
        "num_bv": "0032",
        "lib": "COLLEGE BOSSUET NOTRE-DAME",
        "adresse": "35 RUE DE CHABROL",
        "cp": "75010",
        "lat": 48.87677061151753,
        "lon": 2.3533375711987423
      },
      {
        "objectid": 200,
        "id_bv": "10-33",
        "num_bv": "0033",
        "lib": "ECOLE MATERNELLE LEON SCHWARTZENBERG",
        "adresse": "11 RUE LEON SCHWARTZENBERG",
        "cp": "75010",
        "lat": 48.875950828335384,
        "lon": 2.3535499160047486
      },
      {
        "objectid": 203,
        "id_bv": "10-36",
        "num_bv": "0036",
        "lib": "ECOLE MATERNELLE",
        "adresse": "9 RUE MARTEL",
        "cp": "75010",
        "lat": 48.873975169679156,
        "lon": 2.3529146234384983
      }
    ],
    [
      {
        "objectid": 206,
        "id_bv": "10-39",
        "num_bv": "0039",
        "lib": "ECOLE ELEMENTAIRE",
        "adresse": "6 RUE DE METZ",
        "cp": "75010",
        "lat": 48.87088195358423,
        "lon": 2.3541640544332387
      },
      {
        "objectid": 168,
        "id_bv": "10-1",
        "num_bv": "0001",
        "lib": "MAIRIE D'ARRONDISSEMENT",
        "adresse": "72 RUE DU FAUBOURG SAINT MARTIN",
        "cp": "75010",
        "lat": 48.871784514593536,
        "lon": 2.3573826435521785
      },
      {
        "objectid": 170,
        "id_bv": "10-3",
        "num_bv": "0003",
        "lib": "ECOLE MATERNELLE",
        "adresse": "2 RUE PIERRE BULLET",
        "cp": "75010",
        "lat": 48.87147327249308,
        "lon": 2.3579813011148616
      }
    ]
  ],
  "75011": [
    [
      {
        "objectid": 239,
        "id_bv": "11-33",
        "num_bv": "0033",
        "lib": "LYCEE VOLTAIRE",
        "adresse": "101 AVENUE DE LA REPUBLIQUE",
        "cp": "75011",
        "lat": 48.86352557675839,
        "lon": 2.3845254514304
      },
      {
        "objectid": 244,
        "id_bv": "11-38",
        "num_bv": "0038",
        "lib": "ECOLE ELEMENTAIRE",
        "adresse": "100 AVENUE DE LA REPUBLIQUE",
        "cp": "75011",
        "lat": 48.86355705219711,
        "lon": 2.3827617700926895
      },
      {
        "objectid": 242,
        "id_bv": "11-36",
        "num_bv": "0036",
        "lib": "ECOLE ELEMENTAIRE",
        "adresse": "98 AVENUE DE LA REPUBLIQUE",
        "cp": "75011",
        "lat": 48.863630580122454,
        "lon": 2.3823736241124105
      },
      {
        "objectid": 245,
        "id_bv": "11-39",
        "num_bv": "0039",
        "lib": "ECOLE ELEMENTAIRE",
        "adresse": "29 RUE SERVAN",
        "cp": "75011",
        "lat": 48.86075054237731,
        "lon": 2.382979549002074
      },
      {
        "objectid": 246,
        "id_bv": "11-40",
        "num_bv": "0040",
        "lib": "ECOLE ELEMENTAIRE",
        "adresse": "22 RUE SAINT MAUR",
        "cp": "75011",
        "lat": 48.86030901729687,
        "lon": 2.3820406862175303
      },
      {
        "objectid": 247,
        "id_bv": "11-41",
        "num_bv": "0041",
        "lib": "ECOLE MATERNELLE",
        "adresse": "14 RUE MERLIN",
        "cp": "75011",
        "lat": 48.86000303173066,
        "lon": 2.385842601850074
      }
    ],
    [
      {
        "objectid": 253,
        "id_bv": "11-47",
        "num_bv": "0047",
        "lib": "ECOLE ELEMENTAIRE ALEXANDRE DUMAS",
        "adresse": "30 PASSAGE DU BUREAU",
        "cp": "75011",
        "lat": 48.85441941773241,
        "lon": 2.393878251767701
      },
      {
        "objectid": 250,
        "id_bv": "11-44",
        "num_bv": "0044",
        "lib": "GYMNASE PHILIPPE AUGUSTE",
        "adresse": "68 AVENUE PHILIPPE AUGUSTE",
        "cp": "75011",
        "lat": 48.85393667931142,
        "lon": 2.3927019194608343
      },
      {
        "objectid": 261,
        "id_bv": "11-55",
        "num_bv": "0055",
        "lib": "ECOLE ELEMENTAIRE",
        "adresse": "8 CITE VOLTAIRE",
        "cp": "75011",
        "lat": 48.8526519328373,
        "lon": 2.390499576377401
      },
      {
        "objectid": 260,
        "id_bv": "11-54",
        "num_bv": "0054",
        "lib": "ECOLE MATERNELLE",
        "adresse": "6 CITE VOLTAIRE",
        "cp": "75011",
        "lat": 48.85257531288798,
        "lon": 2.390083983677836
      },
      {
        "objectid": 255,
        "id_bv": "11-49",
        "num_bv": "0049",
        "lib": "ECOLE ELEMENTAIRE",
        "adresse": "4 AVENUE DE BOUVINES",
        "cp": "75011",
        "lat": 48.849852774912044,
        "lon": 2.3965004976339612
      }
    ],
    [
      {
        "objectid": 209,
        "id_bv": "11-3",
        "num_bv": "0003",
        "lib": "ECOLE MATERNELLE",
        "adresse": "144 RUE DE LA ROQUETTE",
        "cp": "75011",
        "lat": 48.858074808008716,
        "lon": 2.382302663453326
      },
      {
        "objectid": 248,
        "id_bv": "11-42",
        "num_bv": "0042",
        "lib": "COLLEGE ALAIN FOURNIER",
        "adresse": "87 RUE LEON FROT",
        "cp": "75011",
        "lat": 48.858223283308,
        "lon": 2.3838537410733744
      },
      {
        "objectid": 207,
        "id_bv": "11-1",
        "num_bv": "0001",
        "lib": "MAIRIE D'ARRONDISSEMENT",
        "adresse": "12 PLACE LEON BLUM",
        "cp": "75011",
        "lat": 48.85850095090393,
        "lon": 2.379520865957035
      },
      {
        "objectid": 208,
        "id_bv": "11-2",
        "num_bv": "0002",
        "lib": "ECOLE ELEMENTAIRE",
        "adresse": "11BIS AVENUE PARMENTIER",
        "cp": "75011",
        "lat": 48.85975604210564,
        "lon": 2.378800224295569
      },
      {
        "objectid": 219,
        "id_bv": "11-13",
        "num_bv": "0013",
        "lib": "ECOLE MATERNELLE",
        "adresse": "9 RUE POPINCOURT",
        "cp": "75011",
        "lat": 48.85737906077341,
        "lon": 2.377318738012324
      },
      {
        "objectid": 210,
        "id_bv": "11-4",
        "num_bv": "0004",
        "lib": "ECOLE ELEMENTAIRE",
        "adresse": "35 RUE GODEFROY CAVAIGNAC",
        "cp": "75011",
        "lat": 48.856080766436534,
        "lon": 2.380494282678489
      }
    ],
    [
      {
        "objectid": 215,
        "id_bv": "11-9",
        "num_bv": "0009",
        "lib": "ECOLE ELEMENTAIRE",
        "adresse": "10 RUE KELLER",
        "cp": "75011",
        "lat": 48.85411493919266,
        "lon": 2.3764735579205887
      },
      {
        "objectid": 214,
        "id_bv": "11-8",
        "num_bv": "0008",
        "lib": "COLLEGE ANNE FRANCK",
        "adresse": "38 RUE TROUSSEAU",
        "cp": "75011",
        "lat": 48.8519251413472,
        "lon": 2.379036764951197
      },
      {
        "objectid": 212,
        "id_bv": "11-6",
        "num_bv": "0006",
        "lib": "ECOLE ELEMENTAIRE",
        "adresse": "33 RUE SAINT BERNARD",
        "cp": "75011",
        "lat": 48.85283097734751,
        "lon": 2.380793952957477
      },
      {
        "objectid": 259,
        "id_bv": "11-53",
        "num_bv": "0053",
        "lib": "ECOLE ELEMENTAIRE",
        "adresse": "16 RUE TITON",
        "cp": "75011",
        "lat": 48.85164128557418,
        "lon": 2.386507358297096
      }
    ],
    [
      {
        "objectid": 233,
        "id_bv": "11-27",
        "num_bv": "0027",
        "lib": "ECOLE ELEMENTAIRE",
        "adresse": "109 AVENUE PARMENTIER",
        "cp": "75011",
        "lat": 48.867615112076685,
        "lon": 2.372622083932313
      },
      {
        "objectid": 228,
        "id_bv": "11-22",
        "num_bv": "0022",
        "lib": "ECOLE MATERNELLE",
        "adresse": "111 AVENUE PARMENTIER",
        "cp": "75011",
        "lat": 48.86793495032688,
        "lon": 2.372385965616552
      },
      {
        "objectid": 236,
        "id_bv": "11-30",
        "num_bv": "0030",
        "lib": "GROUPE SCOLAIRE",
        "adresse": "39 RUE DES TROIS BORNES",
        "cp": "75011",
        "lat": 48.86734855191597,
        "lon": 2.374600993750192
      },
      {
        "objectid": 237,
        "id_bv": "11-31",
        "num_bv": "0031",
        "lib": "ECOLE ELEMENTAIRE",
        "adresse": "77 BOULEVARD DE BELLEVILLE",
        "cp": "75011",
        "lat": 48.87127461428117,
        "lon": 2.377434559280808
      }
    ],
    [
      {
        "objectid": 220,
        "id_bv": "11-14",
        "num_bv": "0014",
        "lib": "ECOLE ELEMENTAIRE",
        "adresse": "13 RUE FROMENT",
        "cp": "75011",
        "lat": 48.85741545977473,
        "lon": 2.3724940809011987
      },
      {
        "objectid": 221,
        "id_bv": "11-15",
        "num_bv": "0015",
        "lib": "ECOLE MATERNELLE",
        "adresse": "13 BOULEVARD RICHARD LENOIR",
        "cp": "75011",
        "lat": 48.856038819315586,
        "lon": 2.3699973229807045
      },
      {
        "objectid": 222,
        "id_bv": "11-16",
        "num_bv": "0016",
        "lib": "ECOLE ELEMENTAIRE",
        "adresse": "17 RUE ALPHONSE BAUDIN",
        "cp": "75011",
        "lat": 48.86111049300105,
        "lon": 2.3701291855040862
      }
    ],
    [
      {
        "objectid": 231,
        "id_bv": "11-25",
        "num_bv": "0025",
        "lib": "ECOLE ELEMENTAIRE",
        "adresse": "1 RUE PIHET",
        "cp": "75011",
        "lat": 48.86345480386402,
        "lon": 2.3738819799878037
      },
      {
        "objectid": 232,
        "id_bv": "11-26",
        "num_bv": "0026",
        "lib": "ECOLE MATERNELLE",
        "adresse": "2 PASSAGE BESLAY",
        "cp": "75011",
        "lat": 48.863000850389795,
        "lon": 2.3734671838205497
      },
      {
        "objectid": 226,
        "id_bv": "11-20",
        "num_bv": "0020",
        "lib": "COLLEGE BEAUMARCHAIS",
        "adresse": "124 RUE AMELOT",
        "cp": "75011",
        "lat": 48.86423154834393,
        "lon": 2.366905964139273
      }
    ]
  ],
  "75012": [
    [
      {
        "objectid": 276,
        "id_bv": "12-15",
        "num_bv": "0015",
        "lib": "ECOLE MATERNELLE",
        "adresse": "59 RUE DE REUILLY",
        "cp": "75012",
        "lat": 48.845678118422995,
        "lon": 2.388686477212233
      },
      {
        "objectid": 275,
        "id_bv": "12-14",
        "num_bv": "0014",
        "lib": "ECOLE ELEMENTAIRE A",
        "adresse": "57 RUE DE REUILLY",
        "cp": "75012",
        "lat": 48.84576438823305,
        "lon": 2.388583682650646
      },
      {
        "objectid": 272,
        "id_bv": "12-11",
        "num_bv": "0011",
        "lib": "GYMNASE LEON MOTTOT",
        "adresse": "19 CITE MOYNET",
        "cp": "75012",
        "lat": 48.84390173681083,
        "lon": 2.3867023637795453
      },
      {
        "objectid": 274,
        "id_bv": "12-13",
        "num_bv": "0013",
        "lib": "ECOLE ELEMENTAIRE",
        "adresse": "27 RUE DE REUILLY",
        "cp": "75012",
        "lat": 48.84795893606288,
        "lon": 2.3864250335673507
      },
      {
        "objectid": 321,
        "id_bv": "12-60",
        "num_bv": "0060",
        "lib": "CENTRE CHALIGNY",
        "adresse": "15 RUE CHALIGNY",
        "cp": "75012",
        "lat": 48.84629527976672,
        "lon": 2.3834817911815755
      },
      {
        "objectid": 270,
        "id_bv": "12-9",
        "num_bv": "0009",
        "lib": "GYMNASE REUILLY",
        "adresse": "5 RUE ANTOINE JULIEN HENARD",
        "cp": "75012",
        "lat": 48.841458449703715,
        "lon": 2.3890465480690337
      }
    ],
    [
      {
        "objectid": 299,
        "id_bv": "12-38",
        "num_bv": "0038",
        "lib": "ECOLE MATERNELLE",
        "adresse": "16 RUE DE MONTEMPOIVRE",
        "cp": "75012",
        "lat": 48.84013866249601,
        "lon": 2.40701434985805
      },
      {
        "objectid": 300,
        "id_bv": "12-39",
        "num_bv": "0039",
        "lib": "CITE SCOLAIRE PAUL VALERY",
        "adresse": "38 BOULEVARD SOULT",
        "cp": "75012",
        "lat": 48.83984209222954,
        "lon": 2.4091790646105697
      },
      {
        "objectid": 325,
        "id_bv": "12-64",
        "num_bv": "0064",
        "lib": "ECOLE ELEMENTAIRE",
        "adresse": "83 AVENUE DU GENERAL MICHEL BIZOT",
        "cp": "75012",
        "lat": 48.83725384177546,
        "lon": 2.4035314270985304
      },
      {
        "objectid": 296,
        "id_bv": "12-35",
        "num_bv": "0035",
        "lib": "COLLEGE GEORGES COURTELINE",
        "adresse": "44 AVENUE DU DOCTEUR ARNOLD NETTER",
        "cp": "75012",
        "lat": 48.84380348853542,
        "lon": 2.4056557146025
      },
      {
        "objectid": 304,
        "id_bv": "12-43",
        "num_bv": "0043",
        "lib": "ECOLE MATERNELLE",
        "adresse": "13 AVENUE ARMAND ROUSSEAU",
        "cp": "75012",
        "lat": 48.83651227708098,
        "lon": 2.4091531125086734
      },
      {
        "objectid": 305,
        "id_bv": "12-44",
        "num_bv": "0044",
        "lib": "ECOLE MATERNELLE",
        "adresse": "13-15 AVENUE ARMAND ROUSSEAU",
        "cp": "75012",
        "lat": 48.83651227525542,
        "lon": 2.4091531070797823
      }
    ],
    [
      {
        "objectid": 303,
        "id_bv": "12-42",
        "num_bv": "0042",
        "lib": "ECOLE MATERNELLE",
        "adresse": "253BIS AVENUE DAUMESNIL",
        "cp": "75012",
        "lat": 48.837246513801915,
        "lon": 2.402569818048119
      },
      {
        "objectid": 302,
        "id_bv": "12-41",
        "num_bv": "0041",
        "lib": "ECOLE ELEMENTAIRE B",
        "adresse": "253TER AVENUE DAUMESNIL",
        "cp": "75012",
        "lat": 48.837044659614385,
        "lon": 2.4031182930447264
      },
      {
        "objectid": 288,
        "id_bv": "12-27",
        "num_bv": "0027",
        "lib": "CENTRE SPORTIF DENISE ET ROBERT GAMZON",
        "adresse": "29 RUE DE LA LANCETTE",
        "cp": "75012",
        "lat": 48.83551943346184,
        "lon": 2.397131780822026
      },
      {
        "objectid": 286,
        "id_bv": "12-25",
        "num_bv": "0025",
        "lib": "ECOLE ELEMENTAIRE",
        "adresse": "52 RUE DE WATTIGNIES",
        "cp": "75012",
        "lat": 48.83551943346184,
        "lon": 2.397131780822026
      },
      {
        "objectid": 287,
        "id_bv": "12-26",
        "num_bv": "0026",
        "lib": "ECOLE MATERNELLE",
        "adresse": "40 RUE DES MEUNIERS",
        "cp": "75012",
        "lat": 48.83481538840476,
        "lon": 2.396508271403658
      },
      {
        "objectid": 265,
        "id_bv": "12-4",
        "num_bv": "0004",
        "lib": "ECOLE MATERNELLE",
        "adresse": "28 RUE DE LA BRECHE AUX LOUPS",
        "cp": "75012",
        "lat": 48.83778785479723,
        "lon": 2.394535771071333
      }
    ],
    [
      {
        "objectid": 307,
        "id_bv": "12-46",
        "num_bv": "0046",
        "lib": "ECOLE ELEMENTAIRE",
        "adresse": "4 RUE DE POMMARD",
        "cp": "75012",
        "lat": 48.83564931755958,
        "lon": 2.3851288515872167
      },
      {
        "objectid": 309,
        "id_bv": "12-48",
        "num_bv": "0048",
        "lib": "ECOLE ELEMENTAIRE",
        "adresse": "6 RUE DE POMMARD",
        "cp": "75012",
        "lat": 48.835960542164614,
        "lon": 2.3847374763444504
      },
      {
        "objectid": 322,
        "id_bv": "12-61",
        "num_bv": "0061",
        "lib": "CHAI DE BERCY",
        "adresse": "41 RUE PAUL BELMONDO",
        "cp": "75012",
        "lat": 48.83635963631575,
        "lon": 2.3828640900752593
      },
      {
        "objectid": 263,
        "id_bv": "12-2",
        "num_bv": "0002",
        "lib": "ECOLE ELEMENTAIRE",
        "adresse": "4 RUE BIGNON",
        "cp": "75012",
        "lat": 48.840431171856366,
        "lon": 2.388515772504104
      },
      {
        "objectid": 310,
        "id_bv": "12-49",
        "num_bv": "0049",
        "lib": "ECOLE ELEMENTAIRE",
        "adresse": "6 RUE BIGNON",
        "cp": "75012",
        "lat": 48.84077056821084,
        "lon": 2.3889267478367984
      },
      {
        "objectid": 283,
        "id_bv": "12-22",
        "num_bv": "0022",
        "lib": "ECOLE ELEMENTAIRE",
        "adresse": "16 RUE DE LA BRECHE AUX LOUPS",
        "cp": "75012",
        "lat": 48.837085557972564,
        "lon": 2.393715337872144
      },
      {
        "objectid": 282,
        "id_bv": "12-21",
        "num_bv": "0021",
        "lib": "MAISON DE LA VIE ASSOCIATIVE ET CITOYENNE",
        "adresse": "181 AVENUE DAUMESNIL",
        "cp": "75012",
        "lat": 48.840487817113896,
        "lon": 2.392506784653973
      }
    ],
    [
      {
        "objectid": 312,
        "id_bv": "12-51",
        "num_bv": "0051",
        "lib": "COLLEGE PAUL VERLAINE",
        "adresse": "165 RUE DE BERCY",
        "cp": "75012",
        "lat": 48.84252116117616,
        "lon": 2.3753979306316615
      },
      {
        "objectid": 320,
        "id_bv": "12-59",
        "num_bv": "0059",
        "lib": "ECOLE ELEMENTAIRE",
        "adresse": "5 RUE JEAN BOUTON",
        "cp": "75012",
        "lat": 48.84569695947829,
        "lon": 2.3767667180935454
      },
      {
        "objectid": 313,
        "id_bv": "12-52",
        "num_bv": "0052",
        "lib": "ECOLE ELEMENTAIRE",
        "adresse": "40 BOULEVARD DIDEROT",
        "cp": "75012",
        "lat": 48.84611204968189,
        "lon": 2.377315062240734
      },
      {
        "objectid": 311,
        "id_bv": "12-50",
        "num_bv": "0050",
        "lib": "ECOLE MATERNELLE",
        "adresse": "70 AVENUE DAUMESNIL",
        "cp": "75012",
        "lat": 48.84470029537299,
        "lon": 2.3803469843455556
      },
      {
        "objectid": 314,
        "id_bv": "12-53",
        "num_bv": "0053",
        "lib": "ECOLE MATERNELLE",
        "adresse": "41 RUE TRAVERSIERE",
        "cp": "75012",
        "lat": 48.847630959994135,
        "lon": 2.3732439602966324
      },
      {
        "objectid": 316,
        "id_bv": "12-55",
        "num_bv": "0055",
        "lib": "ECOLE ELEMENTAIRE",
        "adresse": "8 RUE CHARLES BAUDELAIRE",
        "cp": "75012",
        "lat": 48.84883040792795,
        "lon": 2.376466491041785
      }
    ],
    [
      {
        "objectid": 290,
        "id_bv": "12-29",
        "num_bv": "0029",
        "lib": "GYMNASE LEO LAGRANGE",
        "adresse": "5 RUE FERDINAND DE BEHAGLE",
        "cp": "75012",
        "lat": 48.831407945083434,
        "lon": 2.3991567281454076
      },
      {
        "objectid": 289,
        "id_bv": "12-28",
        "num_bv": "0028",
        "lib": "ECOLE ELEMENTAIRE",
        "adresse": "315 RUE DE CHARENTON",
        "cp": "75012",
        "lat": 48.83363143913315,
        "lon": 2.395160327843878
      }
    ],
    [
      {
        "objectid": 318,
        "id_bv": "12-57",
        "num_bv": "0057",
        "lib": "ECOLE MATERNELLE",
        "adresse": "16 RUE CHARLES BAUDELAIRE",
        "cp": "75012",
        "lat": 48.849498991180006,
        "lon": 2.376926575310956
      },
      {
        "objectid": 317,
        "id_bv": "12-56",
        "num_bv": "0056",
        "lib": "COLLEGE PAUL VERLAINE - ANNEXE",
        "adresse": "14 RUE CHARLES BAUDELAIRE",
        "cp": "75012",
        "lat": 48.84935949383359,
        "lon": 2.3768306902363525
      },
      {
        "objectid": 315,
        "id_bv": "12-54",
        "num_bv": "0054",
        "lib": "ECOLE ELEMENTAIRE",
        "adresse": "51 RUE DE CHARENTON",
        "cp": "75012",
        "lat": 48.85107476965584,
        "lon": 2.3727334022074573
      }
    ],
    [
      {
        "objectid": 297,
        "id_bv": "12-36",
        "num_bv": "0036",
        "lib": "ECOLE ELEMENTAIRE A",
        "adresse": "10 AVENUE LAMORICIERE",
        "cp": "75012",
        "lat": 48.844867693101534,
        "lon": 2.4123379219614267
      },
      {
        "objectid": 293,
        "id_bv": "12-32",
        "num_bv": "0032",
        "lib": "ECOLE ELEMENTAIRE B",
        "adresse": "8 AVENUE LAMORICIERE",
        "cp": "75012",
        "lat": 48.84473017093625,
        "lon": 2.412250241972103
      },
      {
        "objectid": 298,
        "id_bv": "12-37",
        "num_bv": "0037",
        "lib": "COLLEGE GERMAINE TILLION",
        "adresse": "8 AVENUE VINCENT D INDY",
        "cp": "75012",
        "lat": 48.844867693101534,
        "lon": 2.4123379219614267
      }
    ],
    [
      {
        "objectid": 291,
        "id_bv": "12-30",
        "num_bv": "0030",
        "lib": "ECOLE ELEMENTAIRE",
        "adresse": "19 RUE MARSOULAN",
        "cp": "75012",
        "lat": 48.84639431621387,
        "lon": 2.4031566848173713
      },
      {
        "objectid": 267,
        "id_bv": "12-6",
        "num_bv": "0006",
        "lib": "ECOLE MATERNELLE",
        "adresse": "47 RUE DE PICPUS",
        "cp": "75012",
        "lat": 48.84329681277216,
        "lon": 2.397107769291818
      },
      {
        "objectid": 268,
        "id_bv": "12-7",
        "num_bv": "0007",
        "lib": "ECOLE ELEMENTAIRE B",
        "adresse": "56 RUE DE PICPUS",
        "cp": "75012",
        "lat": 48.843591419938384,
        "lon": 2.3966225689535103
      }
    ]
  ],
  "75013": [
    [
      {
        "objectid": 338,
        "id_bv": "13-13",
        "num_bv": "0013",
        "lib": "ECOLE ELEMENTAIRE A",
        "adresse": "33 PLACE JEANNE D ARC",
        "cp": "75013",
        "lat": 48.82978370535335,
        "lon": 2.367434603574184
      },
      {
        "objectid": 353,
        "id_bv": "13-28",
        "num_bv": "0028",
        "lib": "ECOLE ELEMENTAIRE B",
        "adresse": "30 PLACE JEANNE D ARC",
        "cp": "75013",
        "lat": 48.83008507971272,
        "lon": 2.368889206464362
      },
      {
        "objectid": 339,
        "id_bv": "13-14",
        "num_bv": "0014",
        "lib": "ECOLE MATERNELLE",
        "adresse": "103 RUE DU CHATEAU DES RENTIERS",
        "cp": "75013",
        "lat": 48.82817384005207,
        "lon": 2.367210842509875
      }
    ],
    [
      {
        "objectid": 369,
        "id_bv": "13-44",
        "num_bv": "0044",
        "lib": "ECOLE MATERNELLE",
        "adresse": "8 RUE KUSS",
        "cp": "75013",
        "lat": 48.82223098804937,
        "lon": 2.3513055786771857
      },
      {
        "objectid": 368,
        "id_bv": "13-43",
        "num_bv": "0043",
        "lib": "ECOLE POLYVALENTE",
        "adresse": "77 RUE DAMESME",
        "cp": "75013",
        "lat": 48.82155990641502,
        "lon": 2.355370342620731
      },
      {
        "objectid": 371,
        "id_bv": "13-46",
        "num_bv": "0046",
        "lib": "ECOLE MATERNELLE",
        "adresse": "84 BOULEVARD KELLERMANN",
        "cp": "75013",
        "lat": 48.82026224492205,
        "lon": 2.347484235757696
      },
      {
        "objectid": 373,
        "id_bv": "13-48",
        "num_bv": "0048",
        "lib": "ECOLE ELEMENTAIRE A",
        "adresse": "5 RUE DE LA PROVIDENCE",
        "cp": "75013",
        "lat": 48.82534794570993,
        "lon": 2.3488832418282666
      },
      {
        "objectid": 375,
        "id_bv": "13-50",
        "num_bv": "0050",
        "lib": "ECOLE ELEMENTAIRE B",
        "adresse": "7 RUE DE LA PROVIDENCE",
        "cp": "75013",
        "lat": 48.82543045771658,
        "lon": 2.348687124884288
      },
      {
        "objectid": 366,
        "id_bv": "13-41",
        "num_bv": "0041",
        "lib": "ECOLE ELEMENTAIRE",
        "adresse": "5 RUE DAMESME",
        "cp": "75013",
        "lat": 48.825097702965074,
        "lon": 2.355436264971736
      }
    ],
    [
      {
        "objectid": 393,
        "id_bv": "13-68",
        "num_bv": "0068",
        "lib": "ECOLE ELEMENTAIRE",
        "adresse": "40 RUE DU CHATEAU DES RENTIERS",
        "cp": "75013",
        "lat": 48.82495743527967,
        "lon": 2.3699831692473277
      },
      {
        "objectid": 348,
        "id_bv": "13-23",
        "num_bv": "0023",
        "lib": "ECOLE ELEMENTAIRE",
        "adresse": "37 RUE DU CHATEAU DES RENTIERS",
        "cp": "75013",
        "lat": 48.824622421129476,
        "lon": 2.3699765863843254
      },
      {
        "objectid": 349,
        "id_bv": "13-24",
        "num_bv": "0024",
        "lib": "ECOLE MATERNELLE",
        "adresse": "31 RUE DU CHATEAU DES RENTIERS",
        "cp": "75013",
        "lat": 48.82431489127028,
        "lon": 2.3701759823768453
      },
      {
        "objectid": 344,
        "id_bv": "13-19",
        "num_bv": "0019",
        "lib": "ECOLE ELEMENTAIRE B",
        "adresse": "47 AVENUE D IVRY",
        "cp": "75013",
        "lat": 48.823060358310975,
        "lon": 2.3657821818231897
      },
      {
        "objectid": 346,
        "id_bv": "13-21",
        "num_bv": "0021",
        "lib": "ECOLE ELEMENTAIRE",
        "adresse": "51 AVENUE DE LA PORTE D IVRY",
        "cp": "75013",
        "lat": 48.821127535748836,
        "lon": 2.3696084514504627
      },
      {
        "objectid": 345,
        "id_bv": "13-20",
        "num_bv": "0020",
        "lib": "ECOLE ELEMENTAIRE",
        "adresse": "3 RUE EMILE LEVASSOR",
        "cp": "75013",
        "lat": 48.82088924723018,
        "lon": 2.3690428164555835
      },
      {
        "objectid": 347,
        "id_bv": "13-22",
        "num_bv": "0022",
        "lib": "ECOLE ELEMENTAIRE",
        "adresse": "9 RUE FRANC NOHAIN",
        "cp": "75013",
        "lat": 48.821401139014526,
        "lon": 2.3751822012644914
      }
    ],
    [
      {
        "objectid": 332,
        "id_bv": "13-7",
        "num_bv": "0007",
        "lib": "ECOLE NATIONALE DE CHIMIE PHYSIQUE ET BIOLOGIE",
        "adresse": "12 RUE DU BANQUIER",
        "cp": "75013",
        "lat": 48.83597350094466,
        "lon": 2.3570323697527384
      },
      {
        "objectid": 331,
        "id_bv": "13-6",
        "num_bv": "0006",
        "lib": "ECOLE ELEMENTAIRE B",
        "adresse": "46 RUE JENNER",
        "cp": "75013",
        "lat": 48.83603938930559,
        "lon": 2.36087574414417
      },
      {
        "objectid": 329,
        "id_bv": "13-4",
        "num_bv": "0004",
        "lib": "ECOLE ELEMENTAIRE A",
        "adresse": "42 RUE JENNER",
        "cp": "75013",
        "lat": 48.83581663601209,
        "lon": 2.361431286898513
      },
      {
        "objectid": 328,
        "id_bv": "13-3",
        "num_bv": "0003",
        "lib": "ECOLE ELEMENTAIRE",
        "adresse": "13 RUE FAGON",
        "cp": "75013",
        "lat": 48.83254786517237,
        "lon": 2.356950806959855
      },
      {
        "objectid": 392,
        "id_bv": "13-67",
        "num_bv": "0067",
        "lib": "ECOLE MATERNELLE",
        "adresse": "11 RUE DE CROULEBARBE",
        "cp": "75013",
        "lat": 48.834109328458105,
        "lon": 2.3523229157020302
      },
      {
        "objectid": 326,
        "id_bv": "13-1",
        "num_bv": "0001",
        "lib": "MAIRIE D'ARRONDISSEMENT",
        "adresse": "1 PLACE D ITALIE",
        "cp": "75013",
        "lat": 48.83231441714425,
        "lon": 2.35531334643566
      }
    ],
    [
      {
        "objectid": 377,
        "id_bv": "13-52",
        "num_bv": "0052",
        "lib": "ECOLE ELEMENTAIRE",
        "adresse": "16 RUE WURTZ",
        "cp": "75013",
        "lat": 48.82693192515092,
        "lon": 2.3446185412430953
      },
      {
        "objectid": 376,
        "id_bv": "13-51",
        "num_bv": "0051",
        "lib": "COLLEGE GEORGES BRAQUE",
        "adresse": "5 RUE HENRI BECQUE",
        "cp": "75013",
        "lat": 48.82518078345814,
        "lon": 2.3421427446181537
      },
      {
        "objectid": 380,
        "id_bv": "13-55",
        "num_bv": "0055",
        "lib": "ECOLE ELEMENTAIRE",
        "adresse": "100 RUE DE LA GLACIERE",
        "cp": "75013",
        "lat": 48.82926026679698,
        "lon": 2.343168418765966
      },
      {
        "objectid": 372,
        "id_bv": "13-47",
        "num_bv": "0047",
        "lib": "ECOLE MATERNELLE",
        "adresse": "87 RUE BRILLAT SAVARIN",
        "cp": "75013",
        "lat": 48.82440907870251,
        "lon": 2.3428420282309435
      },
      {
        "objectid": 387,
        "id_bv": "13-62",
        "num_bv": "0062",
        "lib": "ECOLE ELEMENTAIRE",
        "adresse": "13 RUE VULPIAN",
        "cp": "75013",
        "lat": 48.83154819097777,
        "lon": 2.3464947042994817
      },
      {
        "objectid": 386,
        "id_bv": "13-61",
        "num_bv": "0061",
        "lib": "ECOLE MATERNELLE",
        "adresse": "2 RUE PAUL GERVAIS",
        "cp": "75013",
        "lat": 48.831543528474576,
        "lon": 2.3475166461382915
      }
    ],
    [
      {
        "objectid": 389,
        "id_bv": "13-64",
        "num_bv": "0064",
        "lib": "ECOLE MATERNELLE",
        "adresse": "140 RUE LEON MAURICE NORDMANN",
        "cp": "75013",
        "lat": 48.83377350802571,
        "lon": 2.3431821295301454
      },
      {
        "objectid": 390,
        "id_bv": "13-65",
        "num_bv": "0065",
        "lib": "ECOLE ELEMENTAIRE",
        "adresse": "30 BOULEVARD ARAGO",
        "cp": "75013",
        "lat": 48.83560045642735,
        "lon": 2.3474585173771927
      },
      {
        "objectid": 385,
        "id_bv": "13-60",
        "num_bv": "0060",
        "lib": "GYMNASE AUGUSTE BLANQUI",
        "adresse": "26 BOULEVARD AUGUSTE BLANQUI",
        "cp": "75013",
        "lat": 48.830605472407356,
        "lon": 2.3518953324257676
      },
      {
        "objectid": 381,
        "id_bv": "13-56",
        "num_bv": "0056",
        "lib": "COLLEGE MOULIN DES PRES",
        "adresse": "18 RUE DU MOULIN DES PRES",
        "cp": "75013",
        "lat": 48.828786424105544,
        "lon": 2.352713359359342
      },
      {
        "objectid": 384,
        "id_bv": "13-59",
        "num_bv": "0059",
        "lib": "ECOLE MATERNELLE",
        "adresse": "40 RUE VANDREZANNE",
        "cp": "75013",
        "lat": 48.827859317156815,
        "lon": 2.3531536994422924
      },
      {
        "objectid": 383,
        "id_bv": "13-58",
        "num_bv": "0058",
        "lib": "ECOLE ELEMENTAIRE",
        "adresse": "38 RUE VANDREZANNE",
        "cp": "75013",
        "lat": 48.82783878282795,
        "lon": 2.3531768470052197
      }
    ],
    [
      {
        "objectid": 360,
        "id_bv": "13-35",
        "num_bv": "0035",
        "lib": "ECOLE ELEMENTAIRE",
        "adresse": "103 AVENUE DE CHOISY",
        "cp": "75013",
        "lat": 48.82495047649833,
        "lon": 2.360696097090138
      },
      {
        "objectid": 394,
        "id_bv": "13-69",
        "num_bv": "0069",
        "lib": "ECOLE ELEMENTAIRE",
        "adresse": "9 RUE AUGUSTE PERRET",
        "cp": "75013",
        "lat": 48.824836052999785,
        "lon": 2.359792237769504
      },
      {
        "objectid": 341,
        "id_bv": "13-16",
        "num_bv": "0016",
        "lib": "ECOLE ELEMENTAIRE A",
        "adresse": "57 RUE BAUDRICOURT",
        "cp": "75013",
        "lat": 48.82570562307148,
        "lon": 2.3630853629045303
      },
      {
        "objectid": 343,
        "id_bv": "13-18",
        "num_bv": "0018",
        "lib": "ECOLE ELEMENTAIRE B",
        "adresse": "55 RUE BAUDRICOURT",
        "cp": "75013",
        "lat": 48.82577113187793,
        "lon": 2.3631352050181897
      },
      {
        "objectid": 365,
        "id_bv": "13-40",
        "num_bv": "0040",
        "lib": "ECOLE MATERNELLE",
        "adresse": "157 RUE DE TOLBIAC",
        "cp": "75013",
        "lat": 48.82603439072667,
        "lon": 2.356264685187939
      },
      {
        "objectid": 364,
        "id_bv": "13-39",
        "num_bv": "0039",
        "lib": "LYCEE PROFESSIONNEL GASTON BACHELARD",
        "adresse": "2 RUE TAGORE",
        "cp": "75013",
        "lat": 48.820716102938356,
        "lon": 2.3603465270494324
      }
    ],
    [
      {
        "objectid": 357,
        "id_bv": "13-32",
        "num_bv": "0032",
        "lib": "ECOLE ELEMENTAIRE",
        "adresse": "60 RUE DUNOIS",
        "cp": "75013",
        "lat": 48.83262567466254,
        "lon": 2.367091671456509
      },
      {
        "objectid": 355,
        "id_bv": "13-30",
        "num_bv": "0030",
        "lib": "ECOLE MATERNELLE",
        "adresse": "63 RUE DUNOIS",
        "cp": "75013",
        "lat": 48.832619050339986,
        "lon": 2.3667765573912956
      },
      {
        "objectid": 356,
        "id_bv": "13-31",
        "num_bv": "0031",
        "lib": "ECOLE ELEMENTAIRE",
        "adresse": "64 RUE DUNOIS",
        "cp": "75013",
        "lat": 48.832747845312014,
        "lon": 2.366908888435585
      },
      {
        "objectid": 334,
        "id_bv": "13-9",
        "num_bv": "0009",
        "lib": "ECOLE MATERNELLE",
        "adresse": "8 RUE RICAUT",
        "cp": "75013",
        "lat": 48.82985084509632,
        "lon": 2.3614545791792976
      },
      {
        "objectid": 336,
        "id_bv": "13-11",
        "num_bv": "0011",
        "lib": "ECOLE ELEMENTAIRE",
        "adresse": "173 RUE DU CHATEAU DES RENTIERS",
        "cp": "75013",
        "lat": 48.83038656423299,
        "lon": 2.361806292991882
      }
    ],
    [
      {
        "objectid": 352,
        "id_bv": "13-27",
        "num_bv": "0027",
        "lib": "ECOLE MATERNELLE",
        "adresse": "15 RUE DE DOMREMY",
        "cp": "75013",
        "lat": 48.830270390844206,
        "lon": 2.3730038519738987
      },
      {
        "objectid": 358,
        "id_bv": "13-33",
        "num_bv": "0033",
        "lib": "ECOLE ELEMENTAIRE",
        "adresse": "8 RUE GEORGE BALANCHINE",
        "cp": "75013",
        "lat": 48.83646720031555,
        "lon": 2.373644553908759
      },
      {
        "objectid": 359,
        "id_bv": "13-34",
        "num_bv": "0034",
        "lib": "ECOLE POLYVALENTE",
        "adresse": "21 RUE PRIMO LEVI",
        "cp": "75013",
        "lat": 48.83054196798175,
        "lon": 2.378744900581231
      },
      {
        "objectid": 397,
        "id_bv": "13-72",
        "num_bv": "0072",
        "lib": "ECOLE POLYVALENTE GRANDS MOULINS",
        "adresse": "47 RUE DES GRANDS MOULINS",
        "cp": "75013",
        "lat": 48.827926498132975,
        "lon": 2.3776956212484324
      }
    ],
    [
      {
        "objectid": 351,
        "id_bv": "13-26",
        "num_bv": "0026",
        "lib": "GYMNASE MARCEL CERDAN",
        "adresse": "5 BIS RUE EUGENE OUDINE",
        "cp": "75013",
        "lat": 48.82585165905638,
        "lon": 2.376166628575776
      },
      {
        "objectid": 396,
        "id_bv": "13-71",
        "num_bv": "0071",
        "lib": "ECOLE POLYVALENTE",
        "adresse": "31 BOULEVARD DU GENERAL JEAN SIMON",
        "cp": "75013",
        "lat": 48.82614483940115,
        "lon": 2.383569491169499
      }
    ],
    [
      {
        "objectid": 362,
        "id_bv": "13-37",
        "num_bv": "0037",
        "lib": "COLLEGE CAMILLE CLAUDEL",
        "adresse": "4 BIS AVENUE DE CHOISY",
        "cp": "75013",
        "lat": 48.82057667416668,
        "lon": 2.364556557613921
      },
      {
        "objectid": 367,
        "id_bv": "13-42",
        "num_bv": "0042",
        "lib": "COLLEGE EVARISTE GALOIS",
        "adresse": "11 RUE DU DOCTEUR BOURNEVILLE",
        "cp": "75013",
        "lat": 48.81844173882346,
        "lon": 2.3583787134225043
      }
    ]
  ],
  "75014": [
    [
      {
        "objectid": 445,
        "id_bv": "14-48",
        "num_bv": "0048",
        "lib": "ECOLE MATERNELLE",
        "adresse": "35 RUE DE L ABBE CARTON",
        "cp": "75014",
        "lat": 48.8296234555104,
        "lon": 2.3166122292271587
      },
      {
        "objectid": 446,
        "id_bv": "14-49",
        "num_bv": "0049",
        "lib": "ECOLE ELEMENTAIRE",
        "adresse": "28 RUE PIERRE LAROUSSE",
        "cp": "75014",
        "lat": 48.82909770167584,
        "lon": 2.3142103813458927
      },
      {
        "objectid": 422,
        "id_bv": "14-25",
        "num_bv": "0025",
        "lib": "ECOLE ELEMENTAIRE",
        "adresse": "48 RUE HIPPOLYTE MAINDRON",
        "cp": "75014",
        "lat": 48.83040458145146,
        "lon": 2.320559193029765
      },
      {
        "objectid": 448,
        "id_bv": "14-51",
        "num_bv": "0051",
        "lib": "ECOLE MATERNELLE",
        "adresse": "2 RUE MAURICE ROUVIER",
        "cp": "75014",
        "lat": 48.830600466542926,
        "lon": 2.3105721502173773
      },
      {
        "objectid": 449,
        "id_bv": "14-52",
        "num_bv": "0052",
        "lib": "ECOLE ELEMENTAIRE",
        "adresse": "4 RUE MAURICE ROUVIER",
        "cp": "75014",
        "lat": 48.83066315254854,
        "lon": 2.310482980043385
      },
      {
        "objectid": 440,
        "id_bv": "14-43",
        "num_bv": "0043",
        "lib": "ECOLE MATERNELLE",
        "adresse": "15 RUE ANTOINE CHANTIN",
        "cp": "75014",
        "lat": 48.827273607870644,
        "lon": 2.322010798959418
      },
      {
        "objectid": 408,
        "id_bv": "14-11",
        "num_bv": "0011",
        "lib": "ECOLE ELEMENTAIRE",
        "adresse": "20 RUE ANTOINE CHANTIN",
        "cp": "75014",
        "lat": 48.827252934345886,
        "lon": 2.322656544906499
      },
      {
        "objectid": 407,
        "id_bv": "14-10",
        "num_bv": "0010",
        "lib": "ECOLE MATERNELLE",
        "adresse": "22 RUE ANTOINE CHANTIN",
        "cp": "75014",
        "lat": 48.827282459808394,
        "lon": 2.3225336137598998
      }
    ],
    [
      {
        "objectid": 414,
        "id_bv": "14-17",
        "num_bv": "0017",
        "lib": "CENTRE SPORTIF ROSA PARKS",
        "adresse": "5 RUE DU MOULIN DES LAPINS",
        "cp": "75014",
        "lat": 48.83428620399962,
        "lon": 2.321058108703359
      },
      {
        "objectid": 413,
        "id_bv": "14-16",
        "num_bv": "0016",
        "lib": "ECOLE ELEMENTAIRE",
        "adresse": "5 RUE ASSELINE",
        "cp": "75014",
        "lat": 48.8352248254387,
        "lon": 2.322846472362937
      },
      {
        "objectid": 415,
        "id_bv": "14-18",
        "num_bv": "0018",
        "lib": "ECOLE MATERNELLE",
        "adresse": "55-61 RUE MAURICE RIPOCHE",
        "cp": "75014",
        "lat": 48.83323862352195,
        "lon": 2.3230557229483457
      },
      {
        "objectid": 420,
        "id_bv": "14-23",
        "num_bv": "0023",
        "lib": "ECOLE MATERNELLE",
        "adresse": "55 RUE MAURICE RIPOCHE",
        "cp": "75014",
        "lat": 48.83323862176186,
        "lon": 2.3230557297828405
      },
      {
        "objectid": 416,
        "id_bv": "14-19",
        "num_bv": "0019",
        "lib": "ECOLE ELEMENTAIRE",
        "adresse": "12 RUE SEVERO",
        "cp": "75014",
        "lat": 48.832450256488414,
        "lon": 2.323527360828787
      },
      {
        "objectid": 399,
        "id_bv": "14-2",
        "num_bv": "0002",
        "lib": "ANNEXE DE LA MAIRIE 14",
        "adresse": "12 RUE PIERRE CASTAGNOU",
        "cp": "75014",
        "lat": 48.83274771201247,
        "lon": 2.325920060178941
      },
      {
        "objectid": 398,
        "id_bv": "14-1",
        "num_bv": "0001",
        "lib": "LYCEE ERIK SATIE",
        "adresse": "2 RUE PIERRE CASTAGNOU",
        "cp": "75014",
        "lat": 48.833323228479195,
        "lon": 2.326302487203697
      },
      {
        "objectid": 400,
        "id_bv": "14-3",
        "num_bv": "0003",
        "lib": "ECOLE ELEMENTAIRE",
        "adresse": "46 RUE BOULARD",
        "cp": "75014",
        "lat": 48.832662577708895,
        "lon": 2.3278361902043443
      },
      {
        "objectid": 425,
        "id_bv": "14-28",
        "num_bv": "0028",
        "lib": "ECOLE MATERNELLE",
        "adresse": "23 RUE BOULARD",
        "cp": "75014",
        "lat": 48.83373670424387,
        "lon": 2.328935229983032
      }
    ],
    [
      {
        "objectid": 417,
        "id_bv": "14-20",
        "num_bv": "0020",
        "lib": "COLLEGE GIACOMETTI",
        "adresse": "7 RUE DU CANGE",
        "cp": "75014",
        "lat": 48.83426455656547,
        "lon": 2.314971561733429
      },
      {
        "objectid": 411,
        "id_bv": "14-14",
        "num_bv": "0014",
        "lib": "ECOLE MATERNELLE",
        "adresse": "1 IMPASSE LEBOUIS",
        "cp": "75014",
        "lat": 48.83680604054008,
        "lon": 2.321719014925194
      },
      {
        "objectid": 412,
        "id_bv": "14-15",
        "num_bv": "0015",
        "lib": "ECOLE ELEMENTAIRE",
        "adresse": "71 RUE DE L OUEST",
        "cp": "75014",
        "lat": 48.835586353593285,
        "lon": 2.318447361787838
      },
      {
        "objectid": 426,
        "id_bv": "14-29",
        "num_bv": "0029",
        "lib": "ECOLE MATERNELLE",
        "adresse": "13 RUE DE L OUEST",
        "cp": "75014",
        "lat": 48.83719804310886,
        "lon": 2.3219948138446314
      }
    ],
    [
      {
        "objectid": 433,
        "id_bv": "14-36",
        "num_bv": "0036",
        "lib": "ECOLE MATERNELLE",
        "adresse": "77 RUE DE LA TOMBE ISSOIRE",
        "cp": "75014",
        "lat": 48.82812132145406,
        "lon": 2.332824273862715
      },
      {
        "objectid": 435,
        "id_bv": "14-38",
        "num_bv": "0038",
        "lib": "ECOLE ELEMENTAIRE",
        "adresse": "14 RUE D ALESIA",
        "cp": "75014",
        "lat": 48.82778425588566,
        "lon": 2.3334232773691763
      },
      {
        "objectid": 434,
        "id_bv": "14-37",
        "num_bv": "0037",
        "lib": "ECOLE ELEMENTAIRE",
        "adresse": "12 RUE D ALESIA",
        "cp": "75014",
        "lat": 48.827700646175884,
        "lon": 2.3339874491430166
      },
      {
        "objectid": 438,
        "id_bv": "14-41",
        "num_bv": "0041",
        "lib": "ECOLE POLYVALENTE",
        "adresse": "13 AVENUE DE LA SIBELLE",
        "cp": "75014",
        "lat": 48.825976521886695,
        "lon": 2.338465797142314
      }
    ],
    [
      {
        "objectid": 455,
        "id_bv": "14-58",
        "num_bv": "0058",
        "lib": "STADE ELISABETH",
        "adresse": "9 AVENUE PAUL APPELL",
        "cp": "75014",
        "lat": 48.821250178249954,
        "lon": 2.328228878235449
      },
      {
        "objectid": 409,
        "id_bv": "14-12",
        "num_bv": "0012",
        "lib": "ECOLE MATERNELLE",
        "adresse": "53 RUE SARRETTE",
        "cp": "75014",
        "lat": 48.82517474977621,
        "lon": 2.327125624457123
      },
      {
        "objectid": 404,
        "id_bv": "14-7",
        "num_bv": "0007",
        "lib": "COLLEGE JEAN MOULIN",
        "adresse": "75 RUE D ALESIA",
        "cp": "75014",
        "lat": 48.82773032828192,
        "lon": 2.3283199522480373
      },
      {
        "objectid": 439,
        "id_bv": "14-42",
        "num_bv": "0042",
        "lib": "ECOLE MATERNELLE",
        "adresse": "34 RUE SARRETTE",
        "cp": "75014",
        "lat": 48.82600796173259,
        "lon": 2.32839947307658
      },
      {
        "objectid": 410,
        "id_bv": "14-13",
        "num_bv": "0013",
        "lib": "ECOLE ELEMENTAIRE",
        "adresse": "5 RUE PRISSE D AVENNES",
        "cp": "75014",
        "lat": 48.82511886096063,
        "lon": 2.328290185843789
      },
      {
        "objectid": 406,
        "id_bv": "14-9",
        "num_bv": "0009",
        "lib": "COLLEGE ALPHONSE DAUDET",
        "adresse": "93 RUE D ALESIA",
        "cp": "75014",
        "lat": 48.828012413000856,
        "lon": 2.3259094061650027
      }
    ],
    [
      {
        "objectid": 431,
        "id_bv": "14-34",
        "num_bv": "0034",
        "lib": "LYCEE EMILE DUBOIS",
        "adresse": "14 RUE EMILE DUBOIS",
        "cp": "75014",
        "lat": 48.831765589020634,
        "lon": 2.3369363630369064
      },
      {
        "objectid": 436,
        "id_bv": "14-39",
        "num_bv": "0039",
        "lib": "ECOLE MATERNELLE",
        "adresse": "3BIS RUE D ALESIA",
        "cp": "75014",
        "lat": 48.82662419091404,
        "lon": 2.3398834143133875
      },
      {
        "objectid": 424,
        "id_bv": "14-27",
        "num_bv": "0027",
        "lib": "COLLEGE SAINT-EXUPERY",
        "adresse": "89 BOULEVARD ARAGO",
        "cp": "75014",
        "lat": 48.83434903847447,
        "lon": 2.3354369048001278
      },
      {
        "objectid": 423,
        "id_bv": "14-26",
        "num_bv": "0026",
        "lib": "ECOLE ELEMENTAIRE",
        "adresse": "87 BOULEVARD ARAGO",
        "cp": "75014",
        "lat": 48.83435989484882,
        "lon": 2.3356846232006574
      }
    ],
    [
      {
        "objectid": 453,
        "id_bv": "14-56",
        "num_bv": "0056",
        "lib": "ECOLE MATERNELLE",
        "adresse": "7 AVENUE MAURICE D OCAGNE",
        "cp": "75014",
        "lat": 48.82469959720063,
        "lon": 2.31215564641789
      },
      {
        "objectid": 454,
        "id_bv": "14-57",
        "num_bv": "0057",
        "lib": "CENTRE PARIS ANIM MARC SANGNIER",
        "adresse": "24 AVENUE MARC SANGNIER",
        "cp": "75014",
        "lat": 48.82578632965143,
        "lon": 2.3072011736341156
      },
      {
        "objectid": 451,
        "id_bv": "14-54",
        "num_bv": "0054",
        "lib": "ECOLE ELEMENTAIRE",
        "adresse": "5 SQUARE ALAIN FOURNIER",
        "cp": "75014",
        "lat": 48.828141560064175,
        "lon": 2.3072869486355794
      }
    ],
    [
      {
        "objectid": 427,
        "id_bv": "14-30",
        "num_bv": "0030",
        "lib": "LYCEE PAUL BERT",
        "adresse": "5 RUE HUYGHENS",
        "cp": "75014",
        "lat": 48.84071804428379,
        "lon": 2.3285836927786616
      },
      {
        "objectid": 429,
        "id_bv": "14-32",
        "num_bv": "0032",
        "lib": "ECOLE ELEMENTAIRE",
        "adresse": "24 RUE DELAMBRE",
        "cp": "75014",
        "lat": 48.841598297972745,
        "lon": 2.326808867455468
      }
    ]
  ],
  "75015": [
    [
      {
        "objectid": 468,
        "id_bv": "15-13",
        "num_bv": "0013",
        "lib": "ECOLE MATERNELLE",
        "adresse": "18 RUE FONDARY",
        "cp": "75015",
        "lat": 48.848300074804776,
        "lon": 2.2925147992340986
      },
      {
        "objectid": 461,
        "id_bv": "15-6",
        "num_bv": "0006",
        "lib": "ECOLE ELEMENTAIRE",
        "adresse": "20 RUE FONDARY",
        "cp": "75015",
        "lat": 48.84824735630283,
        "lon": 2.2926479578673002
      },
      {
        "objectid": 467,
        "id_bv": "15-12",
        "num_bv": "0012",
        "lib": "ECOLE ELEMENTAIRE",
        "adresse": "12 RUE FONDARY",
        "cp": "75015",
        "lat": 48.84840560756566,
        "lon": 2.2922481732393907
      },
      {
        "objectid": 464,
        "id_bv": "15-9",
        "num_bv": "0009",
        "lib": "ECOLE JEANNINE MANUEL",
        "adresse": "115 AVENUE EMILE ZOLA",
        "cp": "75015",
        "lat": 48.846893227643484,
        "lon": 2.2908680430123214
      },
      {
        "objectid": 463,
        "id_bv": "15-8",
        "num_bv": "0008",
        "lib": "COLLEGE CLAUDE DEBUSSY",
        "adresse": "4 PLACE DU COMMERCE",
        "cp": "75015",
        "lat": 48.84529147733691,
        "lon": 2.291597647474012
      },
      {
        "objectid": 469,
        "id_bv": "15-14",
        "num_bv": "0014",
        "lib": "ECOLE ELEMENTAIRE",
        "adresse": "6 RUE SCHUTZENBERGER",
        "cp": "75015",
        "lat": 48.85056484062678,
        "lon": 2.2881029147041327
      }
    ],
    [
      {
        "objectid": 533,
        "id_bv": "15-78",
        "num_bv": "0078",
        "lib": "COLLEGE ANDRE CITROEN",
        "adresse": "208 RUE SAINT CHARLES",
        "cp": "75015",
        "lat": 48.838859572623086,
        "lon": 2.2785902660308475
      },
      {
        "objectid": 532,
        "id_bv": "15-77",
        "num_bv": "0077",
        "lib": "ECOLE MATERNELLE",
        "adresse": "95 RUE BALARD",
        "cp": "75015",
        "lat": 48.83778758881019,
        "lon": 2.278654952235176
      },
      {
        "objectid": 530,
        "id_bv": "15-75",
        "num_bv": "0075",
        "lib": "ANNEXE CITROËN",
        "adresse": "97 RUE BALARD",
        "cp": "75015",
        "lat": 48.8375416334125,
        "lon": 2.2787016218441
      },
      {
        "objectid": 529,
        "id_bv": "15-74",
        "num_bv": "0074",
        "lib": "ECOLE ELEMENTAIRE",
        "adresse": "146 AVENUE FELIX FAURE",
        "cp": "75015",
        "lat": 48.837356530584856,
        "lon": 2.279313380243616
      },
      {
        "objectid": 531,
        "id_bv": "15-76",
        "num_bv": "0076",
        "lib": "ECOLE POLYVALENTE",
        "adresse": "3 BOULEVARD DES FRERES VOISIN",
        "cp": "75015",
        "lat": 48.827963596661704,
        "lon": 2.2683412586594462
      }
    ],
    [
      {
        "objectid": 496,
        "id_bv": "15-41",
        "num_bv": "0041",
        "lib": "ECOLE ELEMENTAIRE",
        "adresse": "17 RUE VIGEE LEBRUN",
        "cp": "75015",
        "lat": 48.838854975114494,
        "lon": 2.3109555017702545
      },
      {
        "objectid": 497,
        "id_bv": "15-42",
        "num_bv": "0042",
        "lib": "ECOLE ELEMENTAIRE",
        "adresse": "11 RUE VIGEE LEBRUN",
        "cp": "75015",
        "lat": 48.839038413949865,
        "lon": 2.310576960563146
      },
      {
        "objectid": 493,
        "id_bv": "15-38",
        "num_bv": "0038",
        "lib": "ECOLE MATERNELLE",
        "adresse": "15 RUE ARISTIDE MAILLOL",
        "cp": "75015",
        "lat": 48.83785580208151,
        "lon": 2.3124130827790146
      },
      {
        "objectid": 494,
        "id_bv": "15-39",
        "num_bv": "0039",
        "lib": "CONSERVATOIRE",
        "adresse": "43 RUE BARGUE",
        "cp": "75015",
        "lat": 48.837971299982684,
        "lon": 2.3089731395350515
      },
      {
        "objectid": 498,
        "id_bv": "15-43",
        "num_bv": "0043",
        "lib": "ECOLE MATERNELLE",
        "adresse": "102 RUE D ALLERAY",
        "cp": "75015",
        "lat": 48.83621201983647,
        "lon": 2.309558316918207
      },
      {
        "objectid": 499,
        "id_bv": "15-44",
        "num_bv": "0044",
        "lib": "ECOLE MATERNELLE",
        "adresse": "85 RUE D ALLERAY",
        "cp": "75015",
        "lat": 48.83641452094546,
        "lon": 2.3087108397276896
      },
      {
        "objectid": 515,
        "id_bv": "15-60",
        "num_bv": "0060",
        "lib": "LYCEE CLAUDE-ANTHIME CORBON",
        "adresse": "1 RUE CORBON",
        "cp": "75015",
        "lat": 48.83663273867055,
        "lon": 2.3033421046507816
      }
    ],
    [
      {
        "objectid": 518,
        "id_bv": "15-63",
        "num_bv": "0063",
        "lib": "ECOLE MATERNELLE",
        "adresse": "6 RUE GERBERT",
        "cp": "75015",
        "lat": 48.83956346801944,
        "lon": 2.2977704011913302
      },
      {
        "objectid": 519,
        "id_bv": "15-64",
        "num_bv": "0064",
        "lib": "ANNEXE LECOURBE",
        "adresse": "154 RUE LECOURBE",
        "cp": "75015",
        "lat": 48.84170750953767,
        "lon": 2.299350347847674
      },
      {
        "objectid": 457,
        "id_bv": "15-2",
        "num_bv": "0002",
        "lib": "MAIRIE D ARRONDISSEMENT",
        "adresse": "31 RUE PECLET",
        "cp": "75015",
        "lat": 48.84151575029144,
        "lon": 2.2998843862096963
      },
      {
        "objectid": 545,
        "id_bv": "15-90",
        "num_bv": "0090",
        "lib": "LYCEE CAMILLE SEE",
        "adresse": "11 RUE LEON LHERMITTE",
        "cp": "75015",
        "lat": 48.84299080040882,
        "lon": 2.296984030717407
      }
    ],
    [
      {
        "objectid": 535,
        "id_bv": "15-80",
        "num_bv": "0080",
        "lib": "ECOLE MATERNELLE",
        "adresse": "72 RUE GUTENBERG",
        "cp": "75015",
        "lat": 48.84137866339207,
        "lon": 2.278600402744605
      },
      {
        "objectid": 537,
        "id_bv": "15-82",
        "num_bv": "0082",
        "lib": "ECOLE ELEMENTAIRE",
        "adresse": "50 RUE GUTENBERG",
        "cp": "75015",
        "lat": 48.84273088069809,
        "lon": 2.279837809559279
      }
    ],
    [
      {
        "objectid": 538,
        "id_bv": "15-83",
        "num_bv": "0083",
        "lib": "COLLEGE GUILLAUME APOLLINAIRE",
        "adresse": "39-43 AVENUE EMILE ZOLA",
        "cp": "75015",
        "lat": 48.84657111640014,
        "lon": 2.2826796421289806
      },
      {
        "objectid": 539,
        "id_bv": "15-84",
        "num_bv": "0084",
        "lib": "ECOLE ELEMENTAIRE",
        "adresse": "7 RUE LACORDAIRE",
        "cp": "75015",
        "lat": 48.843857864604644,
        "lon": 2.28425202494092
      },
      {
        "objectid": 465,
        "id_bv": "15-10",
        "num_bv": "0010",
        "lib": "LYCEE PROFESSIONNEL BEAUGRENELLE",
        "adresse": "62 RUE SAINT CHARLES",
        "cp": "75015",
        "lat": 48.848292254035734,
        "lon": 2.2868578011094103
      },
      {
        "objectid": 540,
        "id_bv": "15-85",
        "num_bv": "0085",
        "lib": "ECOLE POLYVALENTE",
        "adresse": "78 RUE DE LA CONVENTION",
        "cp": "75015",
        "lat": 48.84235824953675,
        "lon": 2.284876342397207
      }
    ],
    [
      {
        "objectid": 507,
        "id_bv": "15-52",
        "num_bv": "0052",
        "lib": "MAISON DE LA VIE ASSOCIATIVE ET CITOYENNE",
        "adresse": "22 RUE DE LA SAIDA",
        "cp": "75015",
        "lat": 48.831832173451,
        "lon": 2.2957560903017473
      },
      {
        "objectid": 508,
        "id_bv": "15-53",
        "num_bv": "0053",
        "lib": "ECOLE ELEMENTAIRE",
        "adresse": "20 RUE DE LA SAIDA",
        "cp": "75015",
        "lat": 48.83199718911074,
        "lon": 2.295528515386628
      },
      {
        "objectid": 510,
        "id_bv": "15-55",
        "num_bv": "0055",
        "lib": "ECOLE MATERNELLE",
        "adresse": "34 RUE OLIVIER DE SERRES",
        "cp": "75015",
        "lat": 48.83550790181274,
        "lon": 2.2965269994893918
      },
      {
        "objectid": 509,
        "id_bv": "15-54",
        "num_bv": "0054",
        "lib": "ECOLE ELEMENTAIRE",
        "adresse": "27 RUE OLIVIER DE SERRES",
        "cp": "75015",
        "lat": 48.83561984286648,
        "lon": 2.2968603794107696
      },
      {
        "objectid": 512,
        "id_bv": "15-57",
        "num_bv": "0057",
        "lib": "ECOLE POLYVALENTE",
        "adresse": "28 RUE DOMBASLE",
        "cp": "75015",
        "lat": 48.83588104254159,
        "lon": 2.298207099563797
      },
      {
        "objectid": 525,
        "id_bv": "15-70",
        "num_bv": "0070",
        "lib": "UFR STAPS - UNIVERSITE PARIS DESCARTES",
        "adresse": "1 RUE LACRETELLE",
        "cp": "75015",
        "lat": 48.834016537697295,
        "lon": 2.2906916147018115
      }
    ],
    [
      {
        "objectid": 527,
        "id_bv": "15-72",
        "num_bv": "0072",
        "lib": "LYCEE LOUIS ARMAND",
        "adresse": "319 RUE LECOURBE",
        "cp": "75015",
        "lat": 48.83729055347667,
        "lon": 2.2855579258810663
      },
      {
        "objectid": 541,
        "id_bv": "15-86",
        "num_bv": "0086",
        "lib": "ECOLE MATERNELLE",
        "adresse": "56 AVENUE FELIX FAURE",
        "cp": "75015",
        "lat": 48.840698669248965,
        "lon": 2.286615493063101
      },
      {
        "objectid": 543,
        "id_bv": "15-88",
        "num_bv": "0088",
        "lib": "ECOLE MATERNELLE",
        "adresse": "10 RUE FRANCOIS COPPEE",
        "cp": "75015",
        "lat": 48.83992700637122,
        "lon": 2.2875977648548247
      },
      {
        "objectid": 544,
        "id_bv": "15-89",
        "num_bv": "0089",
        "lib": "ECOLE ELEMENTAIRE",
        "adresse": "14 RUE FRANCOIS COPPEE",
        "cp": "75015",
        "lat": 48.83987528599033,
        "lon": 2.287841502893303
      },
      {
        "objectid": 522,
        "id_bv": "15-67",
        "num_bv": "0067",
        "lib": "GYMNASE SAINT LAMBERT",
        "adresse": "8 RUE SAINT LAMBERT",
        "cp": "75015",
        "lat": 48.8382541649622,
        "lon": 2.2907396317152604
      },
      {
        "objectid": 523,
        "id_bv": "15-68",
        "num_bv": "0068",
        "lib": "ECOLE MATERNELLE",
        "adresse": "2 RUE THEODORE DECK",
        "cp": "75015",
        "lat": 48.8376584846364,
        "lon": 2.2907382643145504
      },
      {
        "objectid": 524,
        "id_bv": "15-69",
        "num_bv": "0069",
        "lib": "ECOLE ELEMENTAIRE",
        "adresse": "10 RUE SAINT LAMBERT",
        "cp": "75015",
        "lat": 48.83812666916058,
        "lon": 2.2909042361283993
      }
    ],
    [
      {
        "objectid": 482,
        "id_bv": "15-27",
        "num_bv": "0027",
        "lib": "ECOLE ELEMENTAIRE",
        "adresse": "81 RUE MADEMOISELLE",
        "cp": "75015",
        "lat": 48.843380411406635,
        "lon": 2.300408974665432
      },
      {
        "objectid": 460,
        "id_bv": "15-5",
        "num_bv": "0005",
        "lib": "ECOLE ELEMENTAIRE",
        "adresse": "35 RUE DE L AMIRAL ROUSSIN",
        "cp": "75015",
        "lat": 48.84423314962167,
        "lon": 2.2996263350979076
      },
      {
        "objectid": 520,
        "id_bv": "15-65",
        "num_bv": "0065",
        "lib": "GYMNASE LYCEE CAMILLE SEE",
        "adresse": "45 RUE MADEMOISELLE",
        "cp": "75015",
        "lat": 48.843780595492156,
        "lon": 2.297968866869948
      },
      {
        "objectid": 480,
        "id_bv": "15-25",
        "num_bv": "0025",
        "lib": "ECOLE ELEMENTAIRE",
        "adresse": "33BIS RUE MIOLLIS",
        "cp": "75015",
        "lat": 48.845384590693406,
        "lon": 2.3023472723578196
      },
      {
        "objectid": 478,
        "id_bv": "15-23",
        "num_bv": "0023",
        "lib": "ECOLE MATERNELLE",
        "adresse": "33 RUE MIOLLIS",
        "cp": "75015",
        "lat": 48.8454151109998,
        "lon": 2.3024634735864016
      },
      {
        "objectid": 481,
        "id_bv": "15-26",
        "num_bv": "0026",
        "lib": "ECOLE MATERNELLE",
        "adresse": "33 RUE DE L AMIRAL ROUSSIN",
        "cp": "75015",
        "lat": 48.84462369310401,
        "lon": 2.299510366502926
      },
      {
        "objectid": 458,
        "id_bv": "15-3",
        "num_bv": "0003",
        "lib": "ECOLE MATERNELLE",
        "adresse": "83 RUE MADEMOISELLE",
        "cp": "75015",
        "lat": 48.84335867706507,
        "lon": 2.3004985993472036
      }
    ],
    [
      {
        "objectid": 476,
        "id_bv": "15-21",
        "num_bv": "0021",
        "lib": "ECOLE ELEMENTAIRE",
        "adresse": "5 PLACE DU CARDINAL AMETTE",
        "cp": "75015",
        "lat": 48.8507753213655,
        "lon": 2.2971446840825087
      },
      {
        "objectid": 477,
        "id_bv": "15-22",
        "num_bv": "0022",
        "lib": "ECOLE ELEMENTAIRE DUPLEIX",
        "adresse": "1 BIS PLACE DU CARDINAL AMETTE",
        "cp": "75015",
        "lat": 48.8507753213655,
        "lon": 2.2971446840825087
      },